var maincities = {"type":"FeatureCollection","features":[{"type":"Feature","properties":{"loc2":"SKOWHEGAN-ME","location":"SKOWHEGAN, ME","type":"State Top Employer","freq":1,"top_state_emp":"True","top_state_work":"False","top_nat_emp":"False","top_nat_work":"False"},"geometry":{"type":"Point","coordinates":[-69.719238,44.765262]}},{"type":"Feature","properties":{"loc2":"ELDORA-IA","location":"ELDORA, IA","type":"State Top Employer","freq":1,"top_state_emp":"True","top_state_work":"False","top_nat_emp":"False","top_nat_work":"False"},"geometry":{"type":"Point","coordinates":[-93.0996464,42.360816]}},{"type":"Feature","properties":{"loc2":"ELIZABETHTOWN-KY","location":"ELIZABETHTOWN, KY","type":"State Top Employer, State Top Worksite","freq":2,"top_state_emp":"True","top_state_work":"True","top_nat_emp":"False","top_nat_work":"False"},"geometry":{"type":"Point","coordinates":[-85.8591285,37.693952]}},{"type":"Feature","properties":{"loc2":"NORTH MIAMI BEACH-FL","location":"NORTH MIAMI BEACH, FL","type":"National Top Worksite","freq":1,"top_state_emp":"False","top_state_work":"False","top_nat_emp":"False","top_nat_work":"True"},"geometry":{"type":"Point","coordinates":[-80.1625463,25.9331488]}},{"type":"Feature","properties":{"loc2":"EUGENE-OR","location":"EUGENE, OR","type":"State Top Employer","freq":1,"top_state_emp":"True","top_state_work":"False","top_nat_emp":"False","top_nat_work":"False"},"geometry":{"type":"Point","coordinates":[-123.09505060000001,44.0505054]}},{"type":"Feature","properties":{"loc2":"NORTH HAVEN-CT","location":"NORTH HAVEN, CT","type":"State Top Employer","freq":1,"top_state_emp":"True","top_state_work":"False","top_nat_emp":"False","top_nat_work":"False"},"geometry":{"type":"Point","coordinates":[-72.859545,41.390930499999996]}},{"type":"Feature","properties":{"loc2":"NORTH BRUNSWICK-NJ","location":"NORTH BRUNSWICK, NJ","type":"National Top Employer","freq":1,"top_state_emp":"False","top_state_work":"False","top_nat_emp":"True","top_nat_work":"False"},"geometry":{"type":"Point","coordinates":[-74.476671,40.452516]}},{"type":"Feature","properties":{"loc2":"FAIRFAX-VA","location":"FAIRFAX, VA","type":"State Top Employer","freq":1,"top_state_emp":"True","top_state_work":"False","top_nat_emp":"False","top_nat_work":"False"},"geometry":{"type":"Point","coordinates":[-77.3063733,38.8462236]}},{"type":"Feature","properties":{"loc2":"FLOWOOD-MS","location":"FLOWOOD, MS","type":"State Top Employer","freq":1,"top_state_emp":"True","top_state_work":"False","top_nat_emp":"False","top_nat_work":"False"},"geometry":{"type":"Point","coordinates":[-90.1389757,32.309590299999996]}},{"type":"Feature","properties":{"loc2":"FORT DODGE-IA","location":"FORT DODGE, IA","type":"State Top Employer","freq":1,"top_state_emp":"True","top_state_work":"False","top_nat_emp":"False","top_nat_work":"False"},"geometry":{"type":"Point","coordinates":[-94.16801579999999,42.49746939999999]}},{"type":"Feature","properties":{"loc2":"NEW YORK-NM","location":"NEW YORK, NM","type":"State Top Worksite","freq":1,"top_state_emp":"False","top_state_work":"True","top_nat_emp":"False","top_nat_work":"False"},"geometry":{"type":"Point","coordinates":[-107.5272717,35.0586534]}},{"type":"Feature","properties":{"loc2":"NEW MARTINSVILLE-WV","location":"NEW MARTINSVILLE, WV","type":"State Top Worksite","freq":1,"top_state_emp":"False","top_state_work":"True","top_nat_emp":"False","top_nat_work":"False"},"geometry":{"type":"Point","coordinates":[-80.8575993,39.644521399999995]}},{"type":"Feature","properties":{"loc2":"FOSTER CITY-CA","location":"FOSTER CITY, CA","type":"National Top Worksite","freq":1,"top_state_emp":"False","top_state_work":"False","top_nat_emp":"False","top_nat_work":"True"},"geometry":{"type":"Point","coordinates":[-122.26885220000001,37.560033600000004]}},{"type":"Feature","properties":{"loc2":"FRAMINGHAM-MH","location":"FRAMINGHAM, MH","type":"State Top Worksite","freq":1,"top_state_emp":"False","top_state_work":"True","top_nat_emp":"False","top_nat_work":"False"},"geometry":{"type":"Point","coordinates":[-71.416156,42.279286]}},{"type":"Feature","properties":{"loc2":"NEW BRUNSWICK-NJ","location":"NEW BRUNSWICK, NJ","type":"National Top Worksite","freq":1,"top_state_emp":"False","top_state_work":"False","top_nat_emp":"False","top_nat_work":"True"},"geometry":{"type":"Point","coordinates":[-74.4518173,40.4862174]}},{"type":"Feature","properties":{"loc2":"NASHUA-MT","location":"NASHUA, MT","type":"State Top Worksite","freq":1,"top_state_emp":"False","top_state_work":"True","top_nat_emp":"False","top_nat_work":"False"},"geometry":{"type":"Point","coordinates":[-106.35642,48.132242]}},{"type":"Feature","properties":{"loc2":"FREEPORT-ME","location":"FREEPORT, ME","type":"State Top Worksite, State Top Worksite","freq":2,"top_state_emp":"False","top_state_work":"True","top_nat_emp":"False","top_nat_work":"False"},"geometry":{"type":"Point","coordinates":[-70.10376,43.857307]}},{"type":"Feature","properties":{"loc2":"NAPERVILLE-IL","location":"NAPERVILLE, IL","type":"National Top Worksite","freq":1,"top_state_emp":"False","top_state_work":"False","top_nat_emp":"False","top_nat_work":"True"},"geometry":{"type":"Point","coordinates":[-88.1478527,41.7728659]}},{"type":"Feature","properties":{"loc2":"FRIDLEY-MN","location":"FRIDLEY, MN","type":"State Top Worksite","freq":1,"top_state_emp":"False","top_state_work":"True","top_nat_emp":"False","top_nat_work":"False"},"geometry":{"type":"Point","coordinates":[-93.25903879999998,45.0838291]}},{"type":"Feature","properties":{"loc2":"EL PRADO-NM","location":"EL PRADO, NM","type":"State Top Employer","freq":1,"top_state_emp":"True","top_state_work":"False","top_nat_emp":"False","top_nat_work":"False"},"geometry":{"type":"Point","coordinates":[-105.57473300000001,36.4316929]}},{"type":"Feature","properties":{"loc2":"OAKLEY-KS","location":"OAKLEY, KS","type":"State Top Worksite","freq":1,"top_state_emp":"False","top_state_work":"True","top_nat_emp":"False","top_nat_work":"False"},"geometry":{"type":"Point","coordinates":[-100.855611,39.126385]}},{"type":"Feature","properties":{"loc2":"RESTON-VI","location":"RESTON, VI","type":"State Top Worksite","freq":1,"top_state_emp":"False","top_state_work":"True","top_nat_emp":"False","top_nat_work":"False"},"geometry":{"type":"Point","coordinates":[-77.3579743,38.9584018]}},{"type":"Feature","properties":{"loc2":"RESEARCH TRIANGLE PARK-MP","location":"RESEARCH TRIANGLE PARK, MP","type":"State Top Worksite","freq":1,"top_state_emp":"False","top_state_work":"True","top_nat_emp":"False","top_nat_work":"False"},"geometry":{"type":"Point","coordinates":[-78.86364,35.899167999999996]}},{"type":"Feature","properties":{"loc2":"RENO-NV","location":"RENO, NV","type":"State Top Worksite","freq":1,"top_state_emp":"False","top_state_work":"True","top_nat_emp":"False","top_nat_work":"False"},"geometry":{"type":"Point","coordinates":[-119.8136744,39.529270000000004]}},{"type":"Feature","properties":{"loc2":"REDWOOD CITY-CA","location":"REDWOOD CITY, CA","type":"National Top Worksite","freq":1,"top_state_emp":"False","top_state_work":"False","top_nat_emp":"False","top_nat_work":"True"},"geometry":{"type":"Point","coordinates":[-122.2325233,37.4863239]}},{"type":"Feature","properties":{"loc2":"DELAND-FM","location":"DELAND, FM","type":"State Top Employer","freq":1,"top_state_emp":"True","top_state_work":"False","top_nat_emp":"False","top_nat_work":"False"},"geometry":{"type":"Point","coordinates":[-81.31895300000001,28.921377000000003]}},{"type":"Feature","properties":{"loc2":"PROVO-UT","location":"PROVO, UT","type":"State Top Employer","freq":1,"top_state_emp":"True","top_state_work":"False","top_nat_emp":"False","top_nat_work":"False"},"geometry":{"type":"Point","coordinates":[-111.6585337,40.233843799999995]}},{"type":"Feature","properties":{"loc2":"KING OF PRUSSIA-PA","location":"KING OF PRUSSIA, PA","type":"State Top Employer","freq":1,"top_state_emp":"True","top_state_work":"False","top_nat_emp":"False","top_nat_work":"False"},"geometry":{"type":"Point","coordinates":[-75.38515993337408,40.095044]}},{"type":"Feature","properties":{"loc2":"MURRAY-UT","location":"MURRAY, UT","type":"State Top Employer","freq":1,"top_state_emp":"True","top_state_work":"False","top_nat_emp":"False","top_nat_work":"False"},"geometry":{"type":"Point","coordinates":[-111.88841699999999,40.6667841]}},{"type":"Feature","properties":{"loc2":"PLAINS-MT","location":"PLAINS, MT","type":"State Top Worksite","freq":1,"top_state_emp":"False","top_state_work":"True","top_nat_emp":"False","top_nat_work":"False"},"geometry":{"type":"Point","coordinates":[-114.88478870000002,47.4605431]}},{"type":"Feature","properties":{"loc2":"PICKENS-MS","location":"PICKENS, MS","type":"State Top Worksite","freq":1,"top_state_emp":"False","top_state_work":"True","top_nat_emp":"False","top_nat_work":"False"},"geometry":{"type":"Point","coordinates":[-89.9714731,32.8837433]}},{"type":"Feature","properties":{"loc2":"DULLES-VA","location":"DULLES, VA","type":"State Top Worksite","freq":1,"top_state_emp":"False","top_state_work":"True","top_nat_emp":"False","top_nat_work":"False"},"geometry":{"type":"Point","coordinates":[-77.39040229999999,38.9538385]}},{"type":"Feature","properties":{"loc2":"DULUTH-GA","location":"DULUTH, GA","type":"National Top Worksite","freq":1,"top_state_emp":"False","top_state_work":"False","top_nat_emp":"False","top_nat_work":"True"},"geometry":{"type":"Point","coordinates":[-84.14410459999999,34.0028569]}},{"type":"Feature","properties":{"loc2":"EAGLE BUTTE-SD","location":"EAGLE BUTTE, SD","type":"State Top Employer","freq":1,"top_state_emp":"True","top_state_work":"False","top_nat_emp":"False","top_nat_work":"False"},"geometry":{"type":"Point","coordinates":[-101.234324,45.000375]}},{"type":"Feature","properties":{"loc2":"PAPILLION-NE","location":"PAPILLION, NE","type":"State Top Employer, State Top Worksite","freq":2,"top_state_emp":"True","top_state_work":"True","top_nat_emp":"False","top_nat_work":"False"},"geometry":{"type":"Point","coordinates":[-96.04223780000001,41.1544433]}},{"type":"Feature","properties":{"loc2":"OXFORD-MS","location":"OXFORD, MS","type":"State Top Worksite, State Top Worksite","freq":2,"top_state_emp":"False","top_state_work":"True","top_nat_emp":"False","top_nat_work":"False"},"geometry":{"type":"Point","coordinates":[-89.5187664,34.366412700000005]}},{"type":"Feature","properties":{"loc2":"ORDOT-GU","location":"ORDOT, GU","type":"State Top Employer","freq":1,"top_state_emp":"True","top_state_work":"False","top_nat_emp":"False","top_nat_work":"False"},"geometry":{"type":"Point","coordinates":[144.764831898936,13.447507]}},{"type":"Feature","properties":{"loc2":"EAST LANSING-MI","location":"EAST LANSING, MI","type":"National Top Employer","freq":1,"top_state_emp":"False","top_state_work":"False","top_nat_emp":"True","top_nat_work":"False"},"geometry":{"type":"Point","coordinates":[-84.4852469,42.735541600000005]}},{"type":"Feature","properties":{"loc2":"FT. SMITH-AR","location":"FT. SMITH, AR","type":"State Top Employer","freq":1,"top_state_emp":"True","top_state_work":"False","top_nat_emp":"False","top_nat_work":"False"},"geometry":{"type":"Point","coordinates":[-94.4248983,35.3872218]}},{"type":"Feature","properties":{"loc2":"MALTA-NY","location":"MALTA, NY","type":"National Top Worksite","freq":1,"top_state_emp":"False","top_state_work":"False","top_nat_emp":"False","top_nat_work":"True"},"geometry":{"type":"Point","coordinates":[-73.786824,42.985439]}},{"type":"Feature","properties":{"loc2":"HOUSTON-VI","location":"HOUSTON, VI","type":"State Top Employer","freq":1,"top_state_emp":"True","top_state_work":"False","top_nat_emp":"False","top_nat_work":"False"},"geometry":{"type":"Point","coordinates":[-77.0454486216817,38.82268405]}},{"type":"Feature","properties":{"loc2":"HUMACAO-PR","location":"HUMACAO, PR","type":"State Top Worksite","freq":1,"top_state_emp":"False","top_state_work":"True","top_nat_emp":"False","top_nat_work":"False"},"geometry":{"type":"Point","coordinates":[-65.7994517,18.163938100000003]}},{"type":"Feature","properties":{"loc2":"MADISON-AL","location":"MADISON, AL","type":"State Top Worksite","freq":1,"top_state_emp":"False","top_state_work":"True","top_nat_emp":"False","top_nat_work":"False"},"geometry":{"type":"Point","coordinates":[-86.5675095,34.7736807]}},{"type":"Feature","properties":{"loc2":"INDEPENDENCE-MT","location":"INDEPENDENCE, MT","type":"State Top Worksite","freq":1,"top_state_emp":"False","top_state_work":"True","top_nat_emp":"False","top_nat_work":"False"},"geometry":{"type":"Point","coordinates":[-110.24630309999999,45.212438]}},{"type":"Feature","properties":{"loc2":"MARS HILL-ME","location":"MARS HILL, ME","type":"State Top Employer, State Top Worksite","freq":2,"top_state_emp":"True","top_state_work":"True","top_nat_emp":"False","top_nat_work":"False"},"geometry":{"type":"Point","coordinates":[-67.81363449999999,46.521431]}},{"type":"Feature","properties":{"loc2":"LORDSBURG-NM","location":"LORDSBURG, NM","type":"State Top Employer","freq":1,"top_state_emp":"True","top_state_work":"False","top_nat_emp":"False","top_nat_work":"False"},"geometry":{"type":"Point","coordinates":[-108.70843470000001,32.3504143]}},{"type":"Feature","properties":{"loc2":"JOHNSTON-RI","location":"JOHNSTON, RI","type":"State Top Employer, State Top Worksite","freq":2,"top_state_emp":"True","top_state_work":"True","top_nat_emp":"False","top_nat_work":"False"},"geometry":{"type":"Point","coordinates":[-71.54121009999999,41.8310404]}},{"type":"Feature","properties":{"loc2":"LAFAYETTE-LA","location":"LAFAYETTE, LA","type":"State Top Employer, State Top Employer, State Top Worksite","freq":3,"top_state_emp":"True","top_state_work":"True","top_nat_emp":"False","top_nat_work":"False"},"geometry":{"type":"Point","coordinates":[-92.0198427,30.2240897]}},{"type":"Feature","properties":{"loc2":"KINGSHILL-VI","location":"KINGSHILL, VI","type":"State Top Worksite","freq":1,"top_state_emp":"False","top_state_work":"True","top_nat_emp":"False","top_nat_work":"False"},"geometry":{"type":"Point","coordinates":[-64.77911693055529,17.72663875]}},{"type":"Feature","properties":{"loc2":"KANSAS CITY-MT","location":"KANSAS CITY, MT","type":"State Top Worksite","freq":1,"top_state_emp":"False","top_state_work":"True","top_nat_emp":"False","top_nat_work":"False"},"geometry":{"type":"Point","coordinates":[-94.5630298,39.0844687]}},{"type":"Feature","properties":{"loc2":"RICHMOND-VI","location":"RICHMOND, VI","type":"State Top Worksite","freq":1,"top_state_emp":"False","top_state_work":"True","top_nat_emp":"False","top_nat_work":"False"},"geometry":{"type":"Point","coordinates":[-77.43428,37.53850870000001]}},{"type":"Feature","properties":{"loc2":"HERMOSA-SD","location":"HERMOSA, SD","type":"State Top Employer","freq":1,"top_state_emp":"True","top_state_work":"False","top_nat_emp":"False","top_nat_work":"False"},"geometry":{"type":"Point","coordinates":[-103.191374,43.839867]}},{"type":"Feature","properties":{"loc2":"HAWORTH-OK","location":"HAWORTH, OK","type":"State Top Worksite","freq":1,"top_state_emp":"False","top_state_work":"True","top_nat_emp":"False","top_nat_work":"False"},"geometry":{"type":"Point","coordinates":[-94.6527114,33.846500299999995]}},{"type":"Feature","properties":{"loc2":"MOREHEAD-KY","location":"MOREHEAD, KY","type":"State Top Worksite","freq":1,"top_state_emp":"False","top_state_work":"True","top_nat_emp":"False","top_nat_work":"False"},"geometry":{"type":"Point","coordinates":[-83.43268409999999,38.1839705]}},{"type":"Feature","properties":{"loc2":"GEORGETOWN-KY","location":"GEORGETOWN, KY","type":"State Top Worksite","freq":1,"top_state_emp":"False","top_state_work":"True","top_nat_emp":"False","top_nat_work":"False"},"geometry":{"type":"Point","coordinates":[-84.55883100000001,38.209796999999995]}},{"type":"Feature","properties":{"loc2":"GERMANTOWN-TN","location":"GERMANTOWN, TN","type":"State Top Worksite","freq":1,"top_state_emp":"False","top_state_work":"True","top_nat_emp":"False","top_nat_work":"False"},"geometry":{"type":"Point","coordinates":[-89.8100858,35.08675770000001]}},{"type":"Feature","properties":{"loc2":"MONTVILLE-NJ","location":"MONTVILLE, NJ","type":"National Top Employer","freq":1,"top_state_emp":"False","top_state_work":"False","top_nat_emp":"True","top_nat_work":"False"},"geometry":{"type":"Point","coordinates":[-74.383763,40.914820899999995]}},{"type":"Feature","properties":{"loc2":"GLEN ALLEN-VA","location":"GLEN ALLEN, VA","type":"State Top Employer","freq":1,"top_state_emp":"True","top_state_work":"False","top_nat_emp":"False","top_nat_work":"False"},"geometry":{"type":"Point","coordinates":[-77.506374,37.665978100000004]}},{"type":"Feature","properties":{"loc2":"GMF BARRIGADA-GU","location":"GMF BARRIGADA, GU","type":"State Top Employer","freq":1,"top_state_emp":"True","top_state_work":"False","top_nat_emp":"False","top_nat_work":"False"},"geometry":{"type":"Point","coordinates":[144.808854,13.478239000000002]}},{"type":"Feature","properties":{"loc2":"MOBILE-AL","location":"MOBILE, AL","type":"State Top Employer, State Top Employer, State Top Worksite, State Top Worksite","freq":4,"top_state_emp":"True","top_state_work":"True","top_nat_emp":"False","top_nat_work":"False"},"geometry":{"type":"Point","coordinates":[-88.04305409999999,30.6943566]}},{"type":"Feature","properties":{"loc2":"GRAND ISLAND-NE","location":"GRAND ISLAND, NE","type":"State Top Employer, State Top Worksite","freq":2,"top_state_emp":"True","top_state_work":"True","top_nat_emp":"False","top_nat_work":"False"},"geometry":{"type":"Point","coordinates":[-98.338685,40.924271000000005]}},{"type":"Feature","properties":{"loc2":"GRAND RAPIDS-MH","location":"GRAND RAPIDS, MH","type":"State Top Worksite","freq":1,"top_state_emp":"False","top_state_work":"True","top_nat_emp":"False","top_nat_work":"False"},"geometry":{"type":"Point","coordinates":[-85.668086,42.963359999999994]}},{"type":"Feature","properties":{"loc2":"HAZARD-KY","location":"HAZARD, KY","type":"State Top Employer","freq":1,"top_state_emp":"True","top_state_work":"False","top_nat_emp":"False","top_nat_work":"False"},"geometry":{"type":"Point","coordinates":[-83.19322840000001,37.24954]}},{"type":"Feature","properties":{"loc2":"MIAMI-FM","location":"MIAMI, FM","type":"State Top Worksite","freq":1,"top_state_emp":"False","top_state_work":"True","top_nat_emp":"False","top_nat_work":"False"},"geometry":{"type":"Point","coordinates":[-100.6435631,35.6946926]}},{"type":"Feature","properties":{"loc2":"GUAYNOBO-PR","location":"GUAYNOBO, PR","type":"State Top Employer","freq":1,"top_state_emp":"True","top_state_work":"False","top_nat_emp":"False","top_nat_work":"False"},"geometry":{"type":"Point","coordinates":[-66.111068,18.361555]}},{"type":"Feature","properties":{"loc2":"MEDFORD-OR","location":"MEDFORD, OR","type":"State Top Employer, State Top Employer","freq":2,"top_state_emp":"True","top_state_work":"False","top_nat_emp":"False","top_nat_work":"False"},"geometry":{"type":"Point","coordinates":[-122.8718605,42.326418100000005]}},{"type":"Feature","properties":{"loc2":"MECHANICSBURG-PA","location":"MECHANICSBURG, PA","type":"National Top Employer","freq":1,"top_state_emp":"False","top_state_work":"False","top_nat_emp":"True","top_nat_work":"False"},"geometry":{"type":"Point","coordinates":[-77.0047276,40.2101972]}},{"type":"Feature","properties":{"loc2":"MATIE-GU","location":"MATIE, GU","type":"State Top Worksite","freq":1,"top_state_emp":"False","top_state_work":"True","top_nat_emp":"False","top_nat_work":"False"},"geometry":{"type":"Point","coordinates":[-149.1699633,-17.8387305]}},{"type":"Feature","properties":{"loc2":"HARMON-GU","location":"HARMON, GU","type":"State Top Worksite","freq":1,"top_state_emp":"False","top_state_work":"True","top_nat_emp":"False","top_nat_work":"False"},"geometry":{"type":"Point","coordinates":[-99.8358205,34.7486602]}},{"type":"Feature","properties":{"loc2":"MARYLAND HEIGHTS-MS","location":"MARYLAND HEIGHTS, MS","type":"State Top Worksite","freq":1,"top_state_emp":"False","top_state_work":"True","top_nat_emp":"False","top_nat_work":"False"},"geometry":{"type":"Point","coordinates":[-90.4256684842676,38.718005]}},{"type":"Feature","properties":{"loc2":"HAVRE-MT","location":"HAVRE, MT","type":"State Top Worksite","freq":1,"top_state_emp":"False","top_state_work":"True","top_nat_emp":"False","top_nat_work":"False"},"geometry":{"type":"Point","coordinates":[-109.6840887,48.549999]}},{"type":"Feature","properties":{"loc2":"MERIDIAN-ID","location":"MERIDIAN, ID","type":"State Top Employer","freq":1,"top_state_emp":"True","top_state_work":"False","top_nat_emp":"False","top_nat_work":"False"},"geometry":{"type":"Point","coordinates":[-116.392326,43.6086295]}},{"type":"Feature","properties":{"loc2":"DAMARISCOTTA-ME","location":"DAMARISCOTTA, ME","type":"State Top Worksite","freq":1,"top_state_emp":"False","top_state_work":"True","top_nat_emp":"False","top_nat_work":"False"},"geometry":{"type":"Point","coordinates":[-69.5186585,44.032857299999996]}},{"type":"Feature","properties":{"loc2":"PRIOR LAKE-MN","location":"PRIOR LAKE, MN","type":"State Top Worksite","freq":1,"top_state_emp":"False","top_state_work":"True","top_nat_emp":"False","top_nat_work":"False"},"geometry":{"type":"Point","coordinates":[-93.4226873,44.7133271]}},{"type":"Feature","properties":{"loc2":"BAR HARBOR-ME","location":"BAR HARBOR, ME","type":"State Top Employer","freq":1,"top_state_emp":"True","top_state_work":"False","top_nat_emp":"False","top_nat_work":"False"},"geometry":{"type":"Point","coordinates":[-68.21185708110029,44.3864565]}},{"type":"Feature","properties":{"loc2":"WATERTOWN-SD","location":"WATERTOWN, SD","type":"State Top Employer, State Top Employer","freq":2,"top_state_emp":"True","top_state_work":"False","top_nat_emp":"False","top_nat_work":"False"},"geometry":{"type":"Point","coordinates":[-97.115289,44.899211]}},{"type":"Feature","properties":{"loc2":"BARROW-AK","location":"BARROW, AK","type":"State Top Employer","freq":1,"top_state_emp":"True","top_state_work":"False","top_nat_emp":"False","top_nat_work":"False"},"geometry":{"type":"Point","coordinates":[-156.736772403846,71.285478]}},{"type":"Feature","properties":{"loc2":"WATERLOO-IA","location":"WATERLOO, IA","type":"State Top Employer","freq":1,"top_state_emp":"True","top_state_work":"False","top_nat_emp":"False","top_nat_work":"False"},"geometry":{"type":"Point","coordinates":[-92.33850059999999,42.4996483]}},{"type":"Feature","properties":{"loc2":"BEAR-DE","location":"BEAR, DE","type":"State Top Employer","freq":1,"top_state_emp":"True","top_state_work":"False","top_nat_emp":"False","top_nat_work":"False"},"geometry":{"type":"Point","coordinates":[-75.6582628,39.629278799999994]}},{"type":"Feature","properties":{"loc2":"WAILEA-HI","location":"WAILEA, HI","type":"State Top Employer","freq":1,"top_state_emp":"True","top_state_work":"False","top_nat_emp":"False","top_nat_work":"False"},"geometry":{"type":"Point","coordinates":[-155.12303269999998,19.8857764]}},{"type":"Feature","properties":{"loc2":"BELOIT-WI","location":"BELOIT, WI","type":"State Top Employer","freq":1,"top_state_emp":"True","top_state_work":"False","top_nat_emp":"False","top_nat_work":"False"},"geometry":{"type":"Point","coordinates":[-89.031784,42.508327200000004]}},{"type":"Feature","properties":{"loc2":"WATERVILLE-ME","location":"WATERVILLE, ME","type":"State Top Employer, State Top Worksite","freq":2,"top_state_emp":"True","top_state_work":"True","top_nat_emp":"False","top_nat_work":"False"},"geometry":{"type":"Point","coordinates":[-69.63171209999999,44.5520105]}},{"type":"Feature","properties":{"loc2":"UPPER TUMON-GU","location":"UPPER TUMON, GU","type":"State Top Worksite","freq":1,"top_state_emp":"False","top_state_work":"True","top_nat_emp":"False","top_nat_work":"False"},"geometry":{"type":"Point","coordinates":[144.8172819,13.5175098]}},{"type":"Feature","properties":{"loc2":"TRES PIEDRAS-NM","location":"TRES PIEDRAS, NM","type":"State Top Worksite","freq":1,"top_state_emp":"False","top_state_work":"True","top_nat_emp":"False","top_nat_work":"False"},"geometry":{"type":"Point","coordinates":[-105.96680390000002,36.647220000000004]}},{"type":"Feature","properties":{"loc2":"RIO PIEDRAS-SAN JUAN-PR","location":"RIO PIEDRAS, SAN JUAN, PR","type":"State Top Worksite","freq":1,"top_state_emp":"False","top_state_work":"True","top_nat_emp":"False","top_nat_work":"False"},"geometry":{"type":"Point","coordinates":[-66.0527599,18.398249399999997]}},{"type":"Feature","properties":{"loc2":"TALLULAH-LA","location":"TALLULAH, LA","type":"State Top Worksite","freq":1,"top_state_emp":"False","top_state_work":"True","top_nat_emp":"False","top_nat_work":"False"},"geometry":{"type":"Point","coordinates":[-91.1867771,32.4084765]}},{"type":"Feature","properties":{"loc2":"SYRACUSE-NY","location":"SYRACUSE, NY","type":"National Top Worksite","freq":1,"top_state_emp":"False","top_state_work":"False","top_nat_emp":"False","top_nat_work":"True"},"geometry":{"type":"Point","coordinates":[-76.1474244,43.0481221]}},{"type":"Feature","properties":{"loc2":"SUNRISE-FL","location":"SUNRISE, FL","type":"State Top Employer","freq":1,"top_state_emp":"True","top_state_work":"False","top_nat_emp":"False","top_nat_work":"False"},"geometry":{"type":"Point","coordinates":[-80.3288859410087,26.148244899999998]}},{"type":"Feature","properties":{"loc2":"BOWIE-MD","location":"BOWIE, MD","type":"State Top Worksite","freq":1,"top_state_emp":"False","top_state_work":"True","top_nat_emp":"False","top_nat_work":"False"},"geometry":{"type":"Point","coordinates":[-76.731234,38.9429659]}},{"type":"Feature","properties":{"loc2":"ST THOMAS-PR","location":"ST THOMAS, PR","type":"State Top Employer","freq":1,"top_state_emp":"True","top_state_work":"False","top_nat_emp":"False","top_nat_work":"False"},"geometry":{"type":"Point","coordinates":[-95.99333100000001,30.074244]}},{"type":"Feature","properties":{"loc2":"BUFFALO-NY","location":"BUFFALO, NY","type":"National Top Employer","freq":1,"top_state_emp":"False","top_state_work":"False","top_nat_emp":"True","top_nat_work":"False"},"geometry":{"type":"Point","coordinates":[-78.87839220000001,42.8867166]}},{"type":"Feature","properties":{"loc2":"TUSCALOOSA-AL","location":"TUSCALOOSA, AL","type":"State Top Employer","freq":1,"top_state_emp":"True","top_state_work":"False","top_nat_emp":"False","top_nat_work":"False"},"geometry":{"type":"Point","coordinates":[-87.4862182,33.2668398]}},{"type":"Feature","properties":{"loc2":"ST ALBANS-VT","location":"ST ALBANS, VT","type":"State Top Worksite","freq":1,"top_state_emp":"False","top_state_work":"True","top_nat_emp":"False","top_nat_work":"False"},"geometry":{"type":"Point","coordinates":[-73.08319240000002,44.8108791]}},{"type":"Feature","properties":{"loc2":"WESSON-MS","location":"WESSON, MS","type":"State Top Employer","freq":1,"top_state_emp":"True","top_state_work":"False","top_nat_emp":"False","top_nat_work":"False"},"geometry":{"type":"Point","coordinates":[-90.3975928,31.701277]}},{"type":"Feature","properties":{"loc2":"WEST LAFAYETTE-IN","location":"WEST LAFAYETTE, IN","type":"State Top Employer","freq":1,"top_state_emp":"True","top_state_work":"False","top_nat_emp":"False","top_nat_work":"False"},"geometry":{"type":"Point","coordinates":[-86.9080655,40.4258686]}},{"type":"Feature","properties":{"loc2":"YABUCOA-PR","location":"YABUCOA, PR","type":"State Top Worksite","freq":1,"top_state_emp":"False","top_state_work":"True","top_nat_emp":"False","top_nat_work":"False"},"geometry":{"type":"Point","coordinates":[-65.8383798,18.0783082]}},{"type":"Feature","properties":{"loc2":"WYOMING-WY","location":"WYOMING, WY","type":"State Top Worksite","freq":1,"top_state_emp":"False","top_state_work":"True","top_nat_emp":"False","top_nat_work":"False"},"geometry":{"type":"Point","coordinates":[-105.6391459,41.4787714]}},{"type":"Feature","properties":{"loc2":"WORTHINGTON-MN","location":"WORTHINGTON, MN","type":"State Top Worksite","freq":1,"top_state_emp":"False","top_state_work":"True","top_nat_emp":"False","top_nat_work":"False"},"geometry":{"type":"Point","coordinates":[-95.5956434,43.6205056]}},{"type":"Feature","properties":{"loc2":"WOODSTOCK-VT","location":"WOODSTOCK, VT","type":"State Top Worksite","freq":1,"top_state_emp":"False","top_state_work":"True","top_nat_emp":"False","top_nat_work":"False"},"geometry":{"type":"Point","coordinates":[-72.518794,43.6244967]}},{"type":"Feature","properties":{"loc2":"WOODBURY-MN","location":"WOODBURY, MN","type":"State Top Employer","freq":1,"top_state_emp":"True","top_state_work":"False","top_nat_emp":"False","top_nat_work":"False"},"geometry":{"type":"Point","coordinates":[-92.9588282,44.92317]}},{"type":"Feature","properties":{"loc2":"WILTON-ND","location":"WILTON, ND","type":"State Top Employer","freq":1,"top_state_emp":"True","top_state_work":"False","top_nat_emp":"False","top_nat_work":"False"},"geometry":{"type":"Point","coordinates":[-100.786644,47.158747999999996]}},{"type":"Feature","properties":{"loc2":"ANNISTON-AL","location":"ANNISTON, AL","type":"State Top Employer","freq":1,"top_state_emp":"True","top_state_work":"False","top_nat_emp":"False","top_nat_work":"False"},"geometry":{"type":"Point","coordinates":[-85.8398422788233,33.695381]}},{"type":"Feature","properties":{"loc2":"APPLE VALLEY-MN","location":"APPLE VALLEY, MN","type":"State Top Employer","freq":1,"top_state_emp":"True","top_state_work":"False","top_nat_emp":"False","top_nat_work":"False"},"geometry":{"type":"Point","coordinates":[-93.21772,44.7319094]}},{"type":"Feature","properties":{"loc2":"APPLETON-WY","location":"APPLETON, WY","type":"State Top Worksite","freq":1,"top_state_emp":"False","top_state_work":"True","top_nat_emp":"False","top_nat_work":"False"},"geometry":{"type":"Point","coordinates":[-88.40676040000001,44.26113370000001]}},{"type":"Feature","properties":{"loc2":"WILLISTON-VT","location":"WILLISTON, VT","type":"State Top Worksite, State Top Worksite","freq":2,"top_state_emp":"False","top_state_work":"True","top_nat_emp":"False","top_nat_work":"False"},"geometry":{"type":"Point","coordinates":[-73.06869499999999,44.437702]}},{"type":"Feature","properties":{"loc2":"ARLINGTON-VA","location":"ARLINGTON, VA","type":"State Top Employer","freq":1,"top_state_emp":"True","top_state_work":"False","top_nat_emp":"False","top_nat_work":"False"},"geometry":{"type":"Point","coordinates":[-77.0841585,38.890396100000004]}},{"type":"Feature","properties":{"loc2":"WHTIE RIVER JUNCTION-VT","location":"WHTIE RIVER JUNCTION, VT","type":"State Top Worksite","freq":1,"top_state_emp":"False","top_state_work":"True","top_nat_emp":"False","top_nat_work":"False"},"geometry":{"type":"Point","coordinates":[-72.31925799999999,43.648959999999995]}},{"type":"Feature","properties":{"loc2":"AUBURN-ME","location":"AUBURN, ME","type":"State Top Employer","freq":1,"top_state_emp":"True","top_state_work":"False","top_nat_emp":"False","top_nat_work":"False"},"geometry":{"type":"Point","coordinates":[-70.2311655,44.0978509]}},{"type":"Feature","properties":{"loc2":"WESTERVILLE-OH","location":"WESTERVILLE, OH","type":"State Top Employer","freq":1,"top_state_emp":"True","top_state_work":"False","top_nat_emp":"False","top_nat_work":"False"},"geometry":{"type":"Point","coordinates":[-82.9290696,40.126174299999995]}},{"type":"Feature","properties":{"loc2":"WILTON-CT","location":"WILTON, CT","type":"State Top Worksite","freq":1,"top_state_emp":"False","top_state_work":"True","top_nat_emp":"False","top_nat_work":"False"},"geometry":{"type":"Point","coordinates":[-73.4378988,41.1953739]}},{"type":"Feature","properties":{"loc2":"SPRINGVILLE-UT","location":"SPRINGVILLE, UT","type":"State Top Employer","freq":1,"top_state_emp":"True","top_state_work":"False","top_nat_emp":"False","top_nat_work":"False"},"geometry":{"type":"Point","coordinates":[-111.6109221,40.1668572]}},{"type":"Feature","properties":{"loc2":"KEYSER-WV","location":"KEYSER, WV","type":"State Top Worksite","freq":1,"top_state_emp":"False","top_state_work":"True","top_nat_emp":"False","top_nat_work":"False"},"geometry":{"type":"Point","coordinates":[-78.9739156,39.4409277]}},{"type":"Feature","properties":{"loc2":"CENTENNIAL-CO","location":"CENTENNIAL, CO","type":"State Top Employer","freq":1,"top_state_emp":"True","top_state_work":"False","top_nat_emp":"False","top_nat_work":"False"},"geometry":{"type":"Point","coordinates":[-104.97783081285,39.5680644]}},{"type":"Feature","properties":{"loc2":"SAINT LOUIS-MO","location":"SAINT LOUIS, MO","type":"State Top Employer, State Top Worksite, State Top Worksite","freq":3,"top_state_emp":"True","top_state_work":"True","top_nat_emp":"False","top_nat_work":"False"},"geometry":{"type":"Point","coordinates":[-90.19788890000001,38.62727329999999]}},{"type":"Feature","properties":{"loc2":"SALT LAKE CITY-VT","location":"SALT LAKE CITY, VT","type":"State Top Worksite","freq":1,"top_state_emp":"False","top_state_work":"True","top_nat_emp":"False","top_nat_work":"False"},"geometry":{"type":"Point","coordinates":[-111.891047,40.760779]}},{"type":"Feature","properties":{"loc2":"SHINNSTON-WV","location":"SHINNSTON, WV","type":"State Top Worksite, State Top Worksite","freq":2,"top_state_emp":"False","top_state_work":"True","top_nat_emp":"False","top_nat_work":"False"},"geometry":{"type":"Point","coordinates":[-80.3008402,39.395365399999996]}},{"type":"Feature","properties":{"loc2":"CHARLOTTE AMALIE - ST. THOMAS-VI","location":"CHARLOTTE AMALIE ,  ST. THOMAS, VI","type":"State Top Employer","freq":1,"top_state_emp":"True","top_state_work":"False","top_nat_emp":"False","top_nat_work":"False"},"geometry":{"type":"Point","coordinates":[-64.932789,18.341137]}},{"type":"Feature","properties":{"loc2":"CLIVE-IA","location":"CLIVE, IA","type":"State Top Employer","freq":1,"top_state_emp":"True","top_state_work":"False","top_nat_emp":"False","top_nat_work":"False"},"geometry":{"type":"Point","coordinates":[-93.7754352,41.6096029]}},{"type":"Feature","properties":{"loc2":"SMYRNA-LA","location":"SMYRNA, LA","type":"State Top Worksite","freq":1,"top_state_emp":"False","top_state_work":"True","top_nat_emp":"False","top_nat_work":"False"},"geometry":{"type":"Point","coordinates":[-75.6046494,39.299833899999996]}},{"type":"Feature","properties":{"loc2":"SHELBURNE-VT","location":"SHELBURNE, VT","type":"State Top Worksite","freq":1,"top_state_emp":"False","top_state_work":"True","top_nat_emp":"False","top_nat_work":"False"},"geometry":{"type":"Point","coordinates":[-73.227654,44.380803]}},{"type":"Feature","properties":{"loc2":"CLAY CENTER-KS","location":"CLAY CENTER, KS","type":"State Top Worksite","freq":1,"top_state_emp":"False","top_state_work":"True","top_nat_emp":"False","top_nat_work":"False"},"geometry":{"type":"Point","coordinates":[-97.12474300000001,39.376940999999995]}},{"type":"Feature","properties":{"loc2":"SIMI VALLEY-CA","location":"SIMI VALLEY, CA","type":"National Top Employer","freq":1,"top_state_emp":"False","top_state_work":"False","top_nat_emp":"True","top_nat_work":"False"},"geometry":{"type":"Point","coordinates":[-118.78148200000001,34.2694474]}},{"type":"Feature","properties":{"loc2":"SOUTH WILLIAMSON-KY","location":"SOUTH WILLIAMSON, KY","type":"State Top Worksite","freq":1,"top_state_emp":"False","top_state_work":"True","top_nat_emp":"False","top_nat_work":"False"},"geometry":{"type":"Point","coordinates":[-82.283925,37.6720811]}},{"type":"Feature","properties":{"loc2":"RONAN-MT","location":"RONAN, MT","type":"State Top Worksite","freq":1,"top_state_emp":"False","top_state_work":"True","top_nat_emp":"False","top_nat_work":"False"},"geometry":{"type":"Point","coordinates":[-114.10150130000001,47.52882329999999]}},{"type":"Feature","properties":{"loc2":"CAROLINA-PR","location":"CAROLINA, PR","type":"State Top Worksite","freq":1,"top_state_emp":"False","top_state_work":"True","top_nat_emp":"False","top_nat_work":"False"},"geometry":{"type":"Point","coordinates":[-65.962621,18.380326]}},{"type":"Feature","properties":{"loc2":"SOUTH WINDSOR-CT","location":"SOUTH WINDSOR, CT","type":"State Top Employer","freq":1,"top_state_emp":"True","top_state_work":"False","top_nat_emp":"False","top_nat_work":"False"},"geometry":{"type":"Point","coordinates":[-72.5717551,41.8489872]}},{"type":"Feature","properties":{"loc2":"SAN JUAN CAPISTRANO-CA","location":"SAN JUAN CAPISTRANO, CA","type":"National Top Worksite","freq":1,"top_state_emp":"False","top_state_work":"False","top_nat_emp":"False","top_nat_work":"True"},"geometry":{"type":"Point","coordinates":[-117.66255090000001,33.5016932]}},{"type":"Feature","properties":{"loc2":"CORVALLIS-OR","location":"CORVALLIS, OR","type":"State Top Employer, State Top Employer","freq":2,"top_state_emp":"True","top_state_work":"False","top_nat_emp":"False","top_nat_work":"False"},"geometry":{"type":"Point","coordinates":[-123.2620435,44.5645659]}},{"type":"Feature","properties":{"loc2":"SOUIX FALLS-SD","location":"SOUIX FALLS, SD","type":"State Top Employer, State Top Worksite","freq":2,"top_state_emp":"True","top_state_work":"True","top_nat_emp":"False","top_nat_work":"False"},"geometry":{"type":"Point","coordinates":[-96.731103,43.544596000000006]}},{"type":"Feature","properties":{"loc2":"CARY-ND","location":"CARY, ND","type":"State Top Worksite","freq":1,"top_state_emp":"False","top_state_work":"True","top_nat_emp":"False","top_nat_work":"False"},"geometry":{"type":"Point","coordinates":[-78.785189,35.740371]}},{"type":"Feature","properties":{"loc2":"S BURLINGTON-VT","location":"S BURLINGTON, VT","type":"State Top Worksite","freq":1,"top_state_emp":"False","top_state_work":"True","top_nat_emp":"False","top_nat_work":"False"},"geometry":{"type":"Point","coordinates":[-73.1709604,44.4669941]}},{"type":"Feature","properties":{"loc2":"SABANA HOYOS-PR","location":"SABANA HOYOS, PR","type":"State Top Worksite","freq":1,"top_state_emp":"False","top_state_work":"True","top_nat_emp":"False","top_nat_work":"False"},"geometry":{"type":"Point","coordinates":[-66.6119174,18.442227]}},{"type":"Feature","properties":{"loc2":"CLOVIS-NM","location":"CLOVIS, NM","type":"State Top Worksite","freq":1,"top_state_emp":"False","top_state_work":"True","top_nat_emp":"False","top_nat_work":"False"},"geometry":{"type":"Point","coordinates":[-103.20507090000001,34.405471999999996]}},{"type":"Feature","properties":{"loc2":"SAN ANTONIO-TX","location":"SAN ANTONIO, TX","type":"National Top Worksite","freq":1,"top_state_emp":"False","top_state_work":"False","top_nat_emp":"False","top_nat_work":"True"},"geometry":{"type":"Point","coordinates":[-98.4951405,29.424600199999997]}},{"type":"Feature","properties":{"loc2":"PITTSFIELD-ME","location":"PITTSFIELD, ME","type":"State Top Employer, State Top Worksite","freq":2,"top_state_emp":"True","top_state_work":"True","top_nat_emp":"False","top_nat_work":"False"},"geometry":{"type":"Point","coordinates":[-69.38346899999999,44.78281]}},{"type":"Feature","properties":{"loc2":"WHITESTOWN-IN","location":"WHITESTOWN, IN","type":"State Top Employer, State Top Worksite","freq":2,"top_state_emp":"True","top_state_work":"True","top_nat_emp":"False","top_nat_work":"False"},"geometry":{"type":"Point","coordinates":[-86.3458296,39.9972626]}},{"type":"Feature","properties":{"loc2":"SPARKS-NV","location":"SPARKS, NV","type":"State Top Employer, State Top Worksite","freq":2,"top_state_emp":"True","top_state_work":"True","top_nat_emp":"False","top_nat_work":"False"},"geometry":{"type":"Point","coordinates":[-119.7527683,39.5348431]}},{"type":"Feature","properties":{"loc2":"SAINT ALBANS-VT","location":"SAINT ALBANS, VT","type":"State Top Worksite, State Top Worksite","freq":2,"top_state_emp":"False","top_state_work":"True","top_nat_emp":"False","top_nat_work":"False"},"geometry":{"type":"Point","coordinates":[-73.08319240000002,44.8108791]}},{"type":"Feature","properties":{"loc2":"SAIPAN-MP","location":"SAIPAN, MP","type":"State Top Employer, State Top Worksite","freq":2,"top_state_emp":"True","top_state_work":"True","top_nat_emp":"False","top_nat_work":"False"},"geometry":{"type":"Point","coordinates":[145.70801597381399,15.1658865]}},{"type":"Feature","properties":{"loc2":"WINDSOR-CT","location":"WINDSOR, CT","type":"State Top Employer, State Top Worksite","freq":2,"top_state_emp":"True","top_state_work":"True","top_nat_emp":"False","top_nat_work":"False"},"geometry":{"type":"Point","coordinates":[-72.6547277873828,41.8647224]}},{"type":"Feature","properties":{"loc2":"YARMOUTH-ME","location":"YARMOUTH, ME","type":"State Top Employer","freq":1,"top_state_emp":"True","top_state_work":"False","top_nat_emp":"False","top_nat_work":"False"},"geometry":{"type":"Point","coordinates":[-70.1867161,43.8006354]}},{"type":"Feature","properties":{"loc2":"LINTON-ND","location":"LINTON, ND","type":"State Top Employer, State Top Worksite","freq":2,"top_state_emp":"True","top_state_work":"True","top_nat_emp":"False","top_nat_work":"False"},"geometry":{"type":"Point","coordinates":[-100.232892,46.266657]}},{"type":"Feature","properties":{"loc2":"WINOOSKI-VT","location":"WINOOSKI, VT","type":"State Top Employer, State Top Worksite","freq":2,"top_state_emp":"True","top_state_work":"True","top_nat_emp":"False","top_nat_work":"False"},"geometry":{"type":"Point","coordinates":[-73.183022,44.495036]}},{"type":"Feature","properties":{"loc2":"LEWISTON-ID","location":"LEWISTON, ID","type":"State Top Employer, State Top Worksite","freq":2,"top_state_emp":"True","top_state_work":"True","top_nat_emp":"False","top_nat_work":"False"},"geometry":{"type":"Point","coordinates":[-117.01765690000002,46.4165506]}},{"type":"Feature","properties":{"loc2":"LEWISBURG-WV","location":"LEWISBURG, WV","type":"State Top Employer, State Top Worksite","freq":2,"top_state_emp":"True","top_state_work":"True","top_nat_emp":"False","top_nat_work":"False"},"geometry":{"type":"Point","coordinates":[-80.44563029999999,37.801787899999994]}},{"type":"Feature","properties":{"loc2":"LEWES-DE","location":"LEWES, DE","type":"State Top Employer, State Top Employer","freq":2,"top_state_emp":"True","top_state_work":"False","top_nat_emp":"False","top_nat_work":"False"},"geometry":{"type":"Point","coordinates":[-75.1393498,38.7745565]}},{"type":"Feature","properties":{"loc2":"LEAWOOD-KS","location":"LEAWOOD, KS","type":"State Top Employer, State Top Worksite","freq":2,"top_state_emp":"True","top_state_work":"True","top_nat_emp":"False","top_nat_work":"False"},"geometry":{"type":"Point","coordinates":[-94.6169012,38.966673]}},{"type":"Feature","properties":{"loc2":"RUSSELLVILLE-AR","location":"RUSSELLVILLE, AR","type":"State Top Employer","freq":1,"top_state_emp":"True","top_state_work":"False","top_nat_emp":"False","top_nat_work":"False"},"geometry":{"type":"Point","coordinates":[-93.1337856,35.278417299999994]}},{"type":"Feature","properties":{"loc2":"ROUND ROCK-TX","location":"ROUND ROCK, TX","type":"National Top Employer, National Top Employer","freq":2,"top_state_emp":"False","top_state_work":"False","top_nat_emp":"True","top_nat_work":"False"},"geometry":{"type":"Point","coordinates":[-97.6788934,30.508235]}},{"type":"Feature","properties":{"loc2":"PLANTATION-FL","location":"PLANTATION, FL","type":"National Top Employer, State Top Employer","freq":2,"top_state_emp":"True","top_state_work":"False","top_nat_emp":"True","top_nat_work":"False"},"geometry":{"type":"Point","coordinates":[-80.257861237651,26.1265258]}},{"type":"Feature","properties":{"loc2":"WHEELING-WV","location":"WHEELING, WV","type":"State Top Employer, State Top Worksite","freq":2,"top_state_emp":"True","top_state_work":"True","top_nat_emp":"False","top_nat_work":"False"},"geometry":{"type":"Point","coordinates":[-80.72091490000001,40.063961600000006]}},{"type":"Feature","properties":{"loc2":"SANTA TERESA-NM","location":"SANTA TERESA, NM","type":"State Top Worksite","freq":1,"top_state_emp":"False","top_state_work":"True","top_nat_emp":"False","top_nat_work":"False"},"geometry":{"type":"Point","coordinates":[-106.67948170000001,36.153350399999994]}},{"type":"Feature","properties":{"loc2":"WESTMINSTER-VT","location":"WESTMINSTER, VT","type":"State Top Employer, State Top Worksite","freq":2,"top_state_emp":"True","top_state_work":"True","top_nat_emp":"False","top_nat_work":"False"},"geometry":{"type":"Point","coordinates":[-72.4586995,43.067857000000004]}},{"type":"Feature","properties":{"loc2":"SOUTHINGTON-CT","location":"SOUTHINGTON, CT","type":"State Top Employer, State Top Employer","freq":2,"top_state_emp":"True","top_state_work":"False","top_nat_emp":"False","top_nat_work":"False"},"geometry":{"type":"Point","coordinates":[-72.8795904041817,41.60041405]}},{"type":"Feature","properties":{"loc2":"ST LOUIS-MO","location":"ST LOUIS, MO","type":"State Top Worksite","freq":1,"top_state_emp":"False","top_state_work":"True","top_nat_emp":"False","top_nat_work":"False"},"geometry":{"type":"Point","coordinates":[-90.19788890000001,38.62727329999999]}},{"type":"Feature","properties":{"loc2":"ST. FRANCIS-SD","location":"ST. FRANCIS, SD","type":"State Top Employer, State Top Worksite","freq":2,"top_state_emp":"True","top_state_work":"True","top_nat_emp":"False","top_nat_work":"False"},"geometry":{"type":"Point","coordinates":[-100.9051465,43.1444497]}},{"type":"Feature","properties":{"loc2":"STARKVILLE-MS","location":"STARKVILLE, MS","type":"State Top Worksite, State Top Worksite","freq":2,"top_state_emp":"False","top_state_work":"True","top_nat_emp":"False","top_nat_work":"False"},"geometry":{"type":"Point","coordinates":[-88.8183872,33.4503998]}},{"type":"Feature","properties":{"loc2":"STILLWATER-OK","location":"STILLWATER, OK","type":"State Top Employer, State Top Worksite","freq":2,"top_state_emp":"True","top_state_work":"True","top_nat_emp":"False","top_nat_work":"False"},"geometry":{"type":"Point","coordinates":[-97.0585717,36.1156306]}},{"type":"Feature","properties":{"loc2":"NEWPORT-RI","location":"NEWPORT, RI","type":"State Top Employer, State Top Worksite","freq":2,"top_state_emp":"True","top_state_work":"True","top_nat_emp":"False","top_nat_work":"False"},"geometry":{"type":"Point","coordinates":[-71.3137707,41.489982700000006]}},{"type":"Feature","properties":{"loc2":"NEWPORT-VT","location":"NEWPORT, VT","type":"State Top Worksite","freq":1,"top_state_emp":"False","top_state_work":"True","top_nat_emp":"False","top_nat_work":"False"},"geometry":{"type":"Point","coordinates":[-72.204895,44.936127]}},{"type":"Feature","properties":{"loc2":"NEWTOWN-PA","location":"NEWTOWN, PA","type":"State Top Employer, State Top Worksite","freq":2,"top_state_emp":"True","top_state_work":"True","top_nat_emp":"False","top_nat_work":"False"},"geometry":{"type":"Point","coordinates":[-74.9365329,40.2294046]}},{"type":"Feature","properties":{"loc2":"TAMPA-FM","location":"TAMPA, FM","type":"State Top Worksite","freq":1,"top_state_emp":"False","top_state_work":"True","top_nat_emp":"False","top_nat_work":"False"},"geometry":{"type":"Point","coordinates":[-82.459539,27.9475216]}},{"type":"Feature","properties":{"loc2":"THACKERVILLE-OK","location":"THACKERVILLE, OK","type":"State Top Worksite","freq":1,"top_state_emp":"False","top_state_work":"True","top_nat_emp":"False","top_nat_work":"False"},"geometry":{"type":"Point","coordinates":[-97.1430681,33.793437299999994]}},{"type":"Feature","properties":{"loc2":"TOPEKA-KS","location":"TOPEKA, KS","type":"State Top Employer, State Top Worksite","freq":2,"top_state_emp":"True","top_state_work":"True","top_nat_emp":"False","top_nat_work":"False"},"geometry":{"type":"Point","coordinates":[-95.67755600000001,39.049011]}},{"type":"Feature","properties":{"loc2":"MITCHELL-SD","location":"MITCHELL, SD","type":"State Top Worksite, State Top Worksite","freq":2,"top_state_emp":"False","top_state_work":"True","top_nat_emp":"False","top_nat_work":"False"},"geometry":{"type":"Point","coordinates":[-98.025379,43.70953]}},{"type":"Feature","properties":{"loc2":"SOLDOTNA-AK","location":"SOLDOTNA, AK","type":"State Top Employer, State Top Worksite","freq":2,"top_state_emp":"True","top_state_work":"True","top_nat_emp":"False","top_nat_work":"False"},"geometry":{"type":"Point","coordinates":[-151.06534950000002,60.4847228]}},{"type":"Feature","properties":{"loc2":"MANGILAO-GU","location":"MANGILAO, GU","type":"State Top Worksite, State Top Worksite","freq":2,"top_state_emp":"False","top_state_work":"True","top_nat_emp":"False","top_nat_work":"False"},"geometry":{"type":"Point","coordinates":[144.805052811947,13.443991500000001]}},{"type":"Feature","properties":{"loc2":"SOCORRO-NM","location":"SOCORRO, NM","type":"State Top Employer, State Top Worksite","freq":2,"top_state_emp":"True","top_state_work":"True","top_nat_emp":"False","top_nat_work":"False"},"geometry":{"type":"Point","coordinates":[-106.8930169,34.0572769]}},{"type":"Feature","properties":{"loc2":"MILTON-WV","location":"MILTON, WV","type":"State Top Employer, State Top Worksite","freq":2,"top_state_emp":"True","top_state_work":"True","top_nat_emp":"False","top_nat_work":"False"},"geometry":{"type":"Point","coordinates":[-82.1323637,38.4345321]}},{"type":"Feature","properties":{"loc2":"METAIRIE-LA","location":"METAIRIE, LA","type":"State Top Employer, State Top Worksite","freq":2,"top_state_emp":"True","top_state_work":"True","top_nat_emp":"False","top_nat_work":"False"},"geometry":{"type":"Point","coordinates":[-90.17671491598878,30.001852000000003]}},{"type":"Feature","properties":{"loc2":"SIOUX CITY-IA","location":"SIOUX CITY, IA","type":"State Top Employer, State Top Worksite","freq":2,"top_state_emp":"True","top_state_work":"True","top_nat_emp":"False","top_nat_work":"False"},"geometry":{"type":"Point","coordinates":[-96.4058782,42.4966815]}},{"type":"Feature","properties":{"loc2":"MERIDEN-NH","location":"MERIDEN, NH","type":"State Top Employer, State Top Worksite","freq":2,"top_state_emp":"True","top_state_work":"True","top_nat_emp":"False","top_nat_work":"False"},"geometry":{"type":"Point","coordinates":[-72.2525905,43.5439607]}},{"type":"Feature","properties":{"loc2":"WARREN-MI","location":"WARREN, MI","type":"State Top Worksite, State Top Worksite","freq":2,"top_state_emp":"False","top_state_work":"True","top_nat_emp":"False","top_nat_work":"False"},"geometry":{"type":"Point","coordinates":[-83.02770009999999,42.4775364]}},{"type":"Feature","properties":{"loc2":"MENOMONEE FALLS-WI","location":"MENOMONEE FALLS, WI","type":"State Top Worksite, State Top Worksite","freq":2,"top_state_emp":"False","top_state_work":"True","top_nat_emp":"False","top_nat_work":"False"},"geometry":{"type":"Point","coordinates":[-88.1167148,43.178932200000006]}},{"type":"Feature","properties":{"loc2":"WARRENSBURG-MO","location":"WARRENSBURG, MO","type":"State Top Employer, State Top Worksite","freq":2,"top_state_emp":"True","top_state_work":"True","top_nat_emp":"False","top_nat_work":"False"},"geometry":{"type":"Point","coordinates":[-93.7360498,38.7627893]}},{"type":"Feature","properties":{"loc2":"SILVER SPRING-MD","location":"SILVER SPRING, MD","type":"State Top Employer, State Top Employer","freq":2,"top_state_emp":"True","top_state_work":"False","top_nat_emp":"False","top_nat_work":"False"},"geometry":{"type":"Point","coordinates":[-77.0288918,38.9959081]}},{"type":"Feature","properties":{"loc2":"SPRINGFIELD-IL","location":"SPRINGFIELD, IL","type":"National Top Employer, State Top Employer","freq":2,"top_state_emp":"True","top_state_work":"False","top_nat_emp":"True","top_nat_work":"False"},"geometry":{"type":"Point","coordinates":[-89.6443688,39.7989763]}},{"type":"Feature","properties":{"loc2":"PARKERSBURG-WV","location":"PARKERSBURG, WV","type":"State Top Employer, State Top Employer","freq":2,"top_state_emp":"True","top_state_work":"False","top_nat_emp":"False","top_nat_work":"False"},"geometry":{"type":"Point","coordinates":[-81.5506916,39.2699565]}},{"type":"Feature","properties":{"loc2":"MARYLAND HEIGHTS-MO","location":"MARYLAND HEIGHTS, MO","type":"State Top Worksite, State Top Worksite","freq":2,"top_state_emp":"False","top_state_work":"True","top_nat_emp":"False","top_nat_work":"False"},"geometry":{"type":"Point","coordinates":[-90.42984009999999,38.7131073]}},{"type":"Feature","properties":{"loc2":"MINOT-ND","location":"MINOT, ND","type":"State Top Employer, State Top Worksite","freq":2,"top_state_emp":"True","top_state_work":"True","top_nat_emp":"False","top_nat_work":"False"},"geometry":{"type":"Point","coordinates":[-101.296273,48.23251]}},{"type":"Feature","properties":{"loc2":"ROCKLAND-ME","location":"ROCKLAND, ME","type":"State Top Employer, State Top Employer, State Top Worksite, State Top Worksite","freq":4,"top_state_emp":"True","top_state_work":"True","top_nat_emp":"False","top_nat_work":"False"},"geometry":{"type":"Point","coordinates":[-69.108124,44.104352]}},{"type":"Feature","properties":{"loc2":"YIGO-GU","location":"YIGO, GU","type":"State Top Worksite, State Top Worksite","freq":2,"top_state_emp":"False","top_state_work":"True","top_nat_emp":"False","top_nat_work":"False"},"geometry":{"type":"Point","coordinates":[144.897156946731,13.5352045]}},{"type":"Feature","properties":{"loc2":"KEENE-NH","location":"KEENE, NH","type":"State Top Worksite, State Top Worksite","freq":2,"top_state_emp":"False","top_state_work":"True","top_nat_emp":"False","top_nat_work":"False"},"geometry":{"type":"Point","coordinates":[-72.27842640000001,42.933597]}},{"type":"Feature","properties":{"loc2":"DUBUQUE-IA","location":"DUBUQUE, IA","type":"State Top Worksite, State Top Worksite","freq":2,"top_state_emp":"False","top_state_work":"True","top_nat_emp":"False","top_nat_work":"False"},"geometry":{"type":"Point","coordinates":[-90.66479670000001,42.5006217]}},{"type":"Feature","properties":{"loc2":"EDEN PRAIRIE-MN","location":"EDEN PRAIRIE, MN","type":"State Top Employer, State Top Employer","freq":2,"top_state_emp":"True","top_state_work":"False","top_nat_emp":"False","top_nat_work":"False"},"geometry":{"type":"Point","coordinates":[-93.470786,44.8546856]}},{"type":"Feature","properties":{"loc2":"EDMOND-OK","location":"EDMOND, OK","type":"State Top Employer, State Top Worksite","freq":2,"top_state_emp":"True","top_state_work":"True","top_nat_emp":"False","top_nat_work":"False"},"geometry":{"type":"Point","coordinates":[-97.46490379999999,35.6571367]}},{"type":"Feature","properties":{"loc2":"BUFFALO-WY","location":"BUFFALO, WY","type":"State Top Employer, State Top Worksite","freq":2,"top_state_emp":"True","top_state_work":"True","top_nat_emp":"False","top_nat_work":"False"},"geometry":{"type":"Point","coordinates":[-106.69893799999998,44.348308]}},{"type":"Feature","properties":{"loc2":"FAJARDO-PR","location":"FAJARDO, PR","type":"State Top Employer, State Top Employer","freq":2,"top_state_emp":"True","top_state_work":"False","top_nat_emp":"False","top_nat_work":"False"},"geometry":{"type":"Point","coordinates":[-65.652384,18.325787]}},{"type":"Feature","properties":{"loc2":"FALMOUTH-ME","location":"FALMOUTH, ME","type":"State Top Employer, State Top Worksite","freq":2,"top_state_emp":"True","top_state_work":"True","top_nat_emp":"False","top_nat_work":"False"},"geometry":{"type":"Point","coordinates":[-70.24199300000001,43.729525]}},{"type":"Feature","properties":{"loc2":"AURORA-IL","location":"AURORA, IL","type":"National Top Employer, National Top Worksite","freq":2,"top_state_emp":"False","top_state_work":"False","top_nat_emp":"True","top_nat_work":"True"},"geometry":{"type":"Point","coordinates":[-88.31475390000001,41.7571701]}},{"type":"Feature","properties":{"loc2":"BRONX-NY","location":"BRONX, NY","type":"National Top Employer, National Top Worksite","freq":2,"top_state_emp":"False","top_state_work":"False","top_nat_emp":"True","top_nat_work":"True"},"geometry":{"type":"Point","coordinates":[-73.8366961598775,40.85703325]}},{"type":"Feature","properties":{"loc2":"FORT WAYNE-IN","location":"FORT WAYNE, IN","type":"State Top Employer, State Top Worksite","freq":2,"top_state_emp":"True","top_state_work":"True","top_nat_emp":"False","top_nat_work":"False"},"geometry":{"type":"Point","coordinates":[-85.13860150000001,41.0799898]}},{"type":"Feature","properties":{"loc2":"HARLEM-MT","location":"HARLEM, MT","type":"State Top Worksite, State Top Worksite","freq":2,"top_state_emp":"False","top_state_work":"True","top_nat_emp":"False","top_nat_work":"False"},"geometry":{"type":"Point","coordinates":[-108.78636399999999,48.530953000000004]}},{"type":"Feature","properties":{"loc2":"CHANTILLY-VA","location":"CHANTILLY, VA","type":"National Top Employer, State Top Employer","freq":2,"top_state_emp":"True","top_state_work":"False","top_nat_emp":"True","top_nat_work":"False"},"geometry":{"type":"Point","coordinates":[-77.4305118,38.8943792]}},{"type":"Feature","properties":{"loc2":"BARTLESVILLE-OK","location":"BARTLESVILLE, OK","type":"State Top Employer, State Top Worksite","freq":2,"top_state_emp":"True","top_state_work":"True","top_nat_emp":"False","top_nat_work":"False"},"geometry":{"type":"Point","coordinates":[-95.9782966,36.7494864]}},{"type":"Feature","properties":{"loc2":"HAMDEN-CT","location":"HAMDEN, CT","type":"State Top Employer, State Top Worksite","freq":2,"top_state_emp":"True","top_state_work":"True","top_nat_emp":"False","top_nat_work":"False"},"geometry":{"type":"Point","coordinates":[-72.89687159999998,41.3959287]}},{"type":"Feature","properties":{"loc2":"FRANKLIN-TN","location":"FRANKLIN, TN","type":"State Top Worksite, State Top Worksite","freq":2,"top_state_emp":"False","top_state_work":"True","top_nat_emp":"False","top_nat_work":"False"},"geometry":{"type":"Point","coordinates":[-86.86889000000001,35.925064]}},{"type":"Feature","properties":{"loc2":"HAINES-AK","location":"HAINES, AK","type":"State Top Employer, State Top Worksite","freq":2,"top_state_emp":"True","top_state_work":"True","top_nat_emp":"False","top_nat_work":"False"},"geometry":{"type":"Point","coordinates":[-135.3430573,59.08312320000001]}},{"type":"Feature","properties":{"loc2":"GURABO-PR","location":"GURABO, PR","type":"State Top Worksite, State Top Worksite","freq":2,"top_state_emp":"False","top_state_work":"True","top_nat_emp":"False","top_nat_work":"False"},"geometry":{"type":"Point","coordinates":[-65.986003,18.228969]}},{"type":"Feature","properties":{"loc2":"GUAYNABO-PR","location":"GUAYNABO, PR","type":"State Top Employer, State Top Worksite","freq":2,"top_state_emp":"True","top_state_work":"True","top_nat_emp":"False","top_nat_work":"False"},"geometry":{"type":"Point","coordinates":[-66.1054497,18.3619415]}},{"type":"Feature","properties":{"loc2":"GREER-SC","location":"GREER, SC","type":"State Top Worksite","freq":1,"top_state_emp":"False","top_state_work":"True","top_nat_emp":"False","top_nat_work":"False"},"geometry":{"type":"Point","coordinates":[-82.2272119,34.9381361]}},{"type":"Feature","properties":{"loc2":"CONCORDIA-KS","location":"CONCORDIA, KS","type":"State Top Employer, State Top Worksite","freq":2,"top_state_emp":"True","top_state_work":"True","top_nat_emp":"False","top_nat_work":"False"},"geometry":{"type":"Point","coordinates":[-97.661141,39.571543]}},{"type":"Feature","properties":{"loc2":"GREENWICH-CT","location":"GREENWICH, CT","type":"State Top Employer, State Top Worksite","freq":2,"top_state_emp":"True","top_state_work":"True","top_nat_emp":"False","top_nat_work":"False"},"geometry":{"type":"Point","coordinates":[-73.6284598,41.0264862]}},{"type":"Feature","properties":{"loc2":"GAITHERSBURG-MD","location":"GAITHERSBURG, MD","type":"State Top Worksite","freq":1,"top_state_emp":"False","top_state_work":"True","top_nat_emp":"False","top_nat_work":"False"},"geometry":{"type":"Point","coordinates":[-77.2013705,39.143440600000005]}},{"type":"Feature","properties":{"loc2":"BIRMINGAHM-AL","location":"BIRMINGAHM, AL","type":"State Top Employer, State Top Employer","freq":2,"top_state_emp":"True","top_state_work":"False","top_nat_emp":"False","top_nat_work":"False"},"geometry":{"type":"Point","coordinates":[-86.80249,33.520661]}},{"type":"Feature","properties":{"loc2":"GARNETT-KS","location":"GARNETT, KS","type":"State Top Employer, State Top Worksite","freq":2,"top_state_emp":"True","top_state_work":"True","top_nat_emp":"False","top_nat_work":"False"},"geometry":{"type":"Point","coordinates":[-95.2419192,38.2805772]}},{"type":"Feature","properties":{"loc2":"HANCOCK-VT","location":"HANCOCK, VT","type":"State Top Employer, State Top Worksite","freq":2,"top_state_emp":"True","top_state_work":"True","top_nat_emp":"False","top_nat_work":"False"},"geometry":{"type":"Point","coordinates":[-72.8412203,43.9261752]}},{"type":"Feature","properties":{"loc2":"ASHLEY-ND","location":"ASHLEY, ND","type":"State Top Employer, State Top Worksite","freq":2,"top_state_emp":"True","top_state_work":"True","top_nat_emp":"False","top_nat_work":"False"},"geometry":{"type":"Point","coordinates":[-99.371503,46.034141]}},{"type":"Feature","properties":{"loc2":"EASLEY-SC","location":"EASLEY, SC","type":"State Top Employer, State Top Employer","freq":2,"top_state_emp":"True","top_state_work":"False","top_nat_emp":"False","top_nat_work":"False"},"geometry":{"type":"Point","coordinates":[-82.5817053,34.826927600000005]}},{"type":"Feature","properties":{"loc2":"GOODLAND-KS","location":"GOODLAND, KS","type":"State Top Employer, State Top Worksite","freq":2,"top_state_emp":"True","top_state_work":"True","top_nat_emp":"False","top_nat_work":"False"},"geometry":{"type":"Point","coordinates":[-101.7101722,39.350833]}},{"type":"Feature","properties":{"loc2":"COLUMBIA-MD","location":"COLUMBIA, MD","type":"State Top Employer, State Top Employer","freq":2,"top_state_emp":"True","top_state_work":"False","top_nat_emp":"False","top_nat_work":"False"},"geometry":{"type":"Point","coordinates":[-76.85820490000002,39.2156213]}},{"type":"Feature","properties":{"loc2":"JAY-VT","location":"JAY, VT","type":"State Top Employer, State Top Worksite","freq":2,"top_state_emp":"True","top_state_work":"True","top_nat_emp":"False","top_nat_work":"False"},"geometry":{"type":"Point","coordinates":[-72.43796009999998,44.947973299999994]}},{"type":"Feature","properties":{"loc2":"COLORADO SPRINGS-CO","location":"COLORADO SPRINGS, CO","type":"State Top Employer, State Top Worksite","freq":2,"top_state_emp":"True","top_state_work":"True","top_nat_emp":"False","top_nat_work":"False"},"geometry":{"type":"Point","coordinates":[-104.8253485,38.8339578]}},{"type":"Feature","properties":{"loc2":"CHOCTAW-OK","location":"CHOCTAW, OK","type":"State Top Employer, State Top Worksite","freq":2,"top_state_emp":"True","top_state_work":"True","top_nat_emp":"False","top_nat_work":"False"},"geometry":{"type":"Point","coordinates":[-95.52055,34.0246234]}},{"type":"Feature","properties":{"loc2":"ADDISON-TX","location":"ADDISON, TX","type":"National Top Employer, National Top Worksite","freq":2,"top_state_emp":"False","top_state_work":"False","top_nat_emp":"True","top_nat_work":"True"},"geometry":{"type":"Point","coordinates":[-96.8302600315605,32.9604305]}},{"type":"Feature","properties":{"loc2":"DAVENPORT-IA","location":"DAVENPORT, IA","type":"State Top Employer, State Top Worksite","freq":2,"top_state_emp":"True","top_state_work":"True","top_nat_emp":"False","top_nat_work":"False"},"geometry":{"type":"Point","coordinates":[-90.57763680000001,41.5236436]}},{"type":"Feature","properties":{"loc2":"DAYTON-OH","location":"DAYTON, OH","type":"State Top Employer, State Top Worksite","freq":2,"top_state_emp":"True","top_state_work":"True","top_nat_emp":"False","top_nat_work":"False"},"geometry":{"type":"Point","coordinates":[-84.1916069,39.758947799999994]}},{"type":"Feature","properties":{"loc2":"CODY-WY","location":"CODY, WY","type":"State Top Employer","freq":1,"top_state_emp":"True","top_state_work":"False","top_nat_emp":"False","top_nat_work":"False"},"geometry":{"type":"Point","coordinates":[-109.0563923,44.5263107]}},{"type":"Feature","properties":{"loc2":"KALISPELL-MT","location":"KALISPELL, MT","type":"State Top Employer, State Top Worksite","freq":2,"top_state_emp":"True","top_state_work":"True","top_nat_emp":"False","top_nat_work":"False"},"geometry":{"type":"Point","coordinates":[-114.31671170000001,48.202256299999995]}},{"type":"Feature","properties":{"loc2":"ITTA BENA-MS","location":"ITTA BENA, MS","type":"State Top Employer, State Top Worksite","freq":2,"top_state_emp":"True","top_state_work":"True","top_nat_emp":"False","top_nat_work":"False"},"geometry":{"type":"Point","coordinates":[-90.3198067,33.49512]}},{"type":"Feature","properties":{"loc2":"ANGEL FIRE-NM","location":"ANGEL FIRE, NM","type":"State Top Employer, State Top Worksite","freq":2,"top_state_emp":"True","top_state_work":"True","top_nat_emp":"False","top_nat_work":"False"},"geometry":{"type":"Point","coordinates":[-105.2850091,36.3930879]}},{"type":"Feature","properties":{"loc2":"ARDMORE-OK","location":"ARDMORE, OK","type":"State Top Worksite, State Top Worksite","freq":2,"top_state_emp":"False","top_state_work":"True","top_nat_emp":"False","top_nat_work":"False"},"geometry":{"type":"Point","coordinates":[-97.1436254,34.1742611]}},{"type":"Feature","properties":{"loc2":"DOTHAN-AL","location":"DOTHAN, AL","type":"State Top Employer, State Top Worksite","freq":2,"top_state_emp":"True","top_state_work":"True","top_nat_emp":"False","top_nat_work":"False"},"geometry":{"type":"Point","coordinates":[-85.39048890000001,31.223231300000002]}},{"type":"Feature","properties":{"loc2":"INDIANOLA-MS","location":"INDIANOLA, MS","type":"State Top Employer, State Top Worksite","freq":2,"top_state_emp":"True","top_state_work":"True","top_nat_emp":"False","top_nat_work":"False"},"geometry":{"type":"Point","coordinates":[-90.6550917,33.45095130000001]}},{"type":"Feature","properties":{"loc2":"CROWN POINT-IN","location":"CROWN POINT, IN","type":"State Top Employer, State Top Worksite","freq":2,"top_state_emp":"True","top_state_work":"True","top_nat_emp":"False","top_nat_work":"False"},"geometry":{"type":"Point","coordinates":[-87.3653136,41.4169806]}},{"type":"Feature","properties":{"loc2":"CHRISTIANSTED-VI","location":"CHRISTIANSTED, VI","type":"State Top Worksite, State Top Worksite","freq":2,"top_state_emp":"False","top_state_work":"True","top_nat_emp":"False","top_nat_work":"False"},"geometry":{"type":"Point","coordinates":[-64.7079823,17.743948100000004]}},{"type":"Feature","properties":{"loc2":"AIKEN-SC","location":"AIKEN, SC","type":"State Top Worksite, State Top Worksite","freq":2,"top_state_emp":"False","top_state_work":"True","top_nat_emp":"False","top_nat_work":"False"},"geometry":{"type":"Point","coordinates":[-81.721952,33.5598586]}},{"type":"Feature","properties":{"loc2":"MOSCOW-ID","location":"MOSCOW, ID","type":"State Top Employer, State Top Employer, State Top Employer, State Top Worksite","freq":4,"top_state_emp":"True","top_state_work":"True","top_nat_emp":"False","top_nat_work":"False"},"geometry":{"type":"Point","coordinates":[-117.00016509999999,46.7323875]}},{"type":"Feature","properties":{"loc2":"BISMARCK-ND","location":"BISMARCK, ND","type":"State Top Worksite, State Top Worksite, State Top Worksite","freq":3,"top_state_emp":"False","top_state_work":"True","top_nat_emp":"False","top_nat_work":"False"},"geometry":{"type":"Point","coordinates":[-100.783739,46.808327]}},{"type":"Feature","properties":{"loc2":"ROCKLEDGE-FL","location":"ROCKLEDGE, FL","type":"State Top Employer, State Top Employer, State Top Worksite","freq":3,"top_state_emp":"True","top_state_work":"True","top_nat_emp":"False","top_nat_work":"False"},"geometry":{"type":"Point","coordinates":[-80.72076512779671,28.312799]}},{"type":"Feature","properties":{"loc2":"GAINESVILLE-FL","location":"GAINESVILLE, FL","type":"State Top Employer, State Top Employer, State Top Worksite","freq":3,"top_state_emp":"True","top_state_work":"True","top_nat_emp":"False","top_nat_work":"False"},"geometry":{"type":"Point","coordinates":[-82.32499609999999,29.651939600000002]}},{"type":"Feature","properties":{"loc2":"MORRISVILLE-VT","location":"MORRISVILLE, VT","type":"State Top Employer, State Top Worksite, State Top Worksite","freq":3,"top_state_emp":"True","top_state_work":"True","top_nat_emp":"False","top_nat_work":"False"},"geometry":{"type":"Point","coordinates":[-72.593448521619,44.557959999999994]}},{"type":"Feature","properties":{"loc2":"MORRISVILLE-NC","location":"MORRISVILLE, NC","type":"National Top Worksite, State Top Employer, State Top Worksite","freq":3,"top_state_emp":"True","top_state_work":"True","top_nat_emp":"False","top_nat_work":"True"},"geometry":{"type":"Point","coordinates":[-78.8255621,35.823483]}},{"type":"Feature","properties":{"loc2":"ROGERS-AR","location":"ROGERS, AR","type":"State Top Employer, State Top Employer, State Top Worksite","freq":3,"top_state_emp":"True","top_state_work":"True","top_nat_emp":"False","top_nat_work":"False"},"geometry":{"type":"Point","coordinates":[-94.118537,36.33202]}},{"type":"Feature","properties":{"loc2":"CUMBERLAND-RI","location":"CUMBERLAND, RI","type":"State Top Worksite, State Top Worksite","freq":2,"top_state_emp":"False","top_state_work":"True","top_nat_emp":"False","top_nat_work":"False"},"geometry":{"type":"Point","coordinates":[-71.4328363,41.9667656]}},{"type":"Feature","properties":{"loc2":"BLOOMINGTON-IN","location":"BLOOMINGTON, IN","type":"State Top Employer, State Top Employer, State Top Worksite","freq":3,"top_state_emp":"True","top_state_work":"True","top_nat_emp":"False","top_nat_work":"False"},"geometry":{"type":"Point","coordinates":[-86.5342881,39.1670396]}},{"type":"Feature","properties":{"loc2":"DOVER-DE","location":"DOVER, DE","type":"State Top Employer, State Top Employer","freq":2,"top_state_emp":"True","top_state_work":"False","top_nat_emp":"False","top_nat_work":"False"},"geometry":{"type":"Point","coordinates":[-75.5243682,39.158167999999996]}},{"type":"Feature","properties":{"loc2":"ROCHESTER-MN","location":"ROCHESTER, MN","type":"State Top Employer, State Top Employer","freq":2,"top_state_emp":"True","top_state_work":"False","top_nat_emp":"False","top_nat_work":"False"},"geometry":{"type":"Point","coordinates":[-92.4630215,44.023326899999994]}},{"type":"Feature","properties":{"loc2":"TEMPE-AZ","location":"TEMPE, AZ","type":"State Top Employer, State Top Employer, State Top Worksite","freq":3,"top_state_emp":"True","top_state_work":"True","top_nat_emp":"False","top_nat_work":"False"},"geometry":{"type":"Point","coordinates":[-111.90944740000002,33.4144139]}},{"type":"Feature","properties":{"loc2":"DANBURY-CT","location":"DANBURY, CT","type":"State Top Employer, State Top Worksite, State Top Worksite","freq":3,"top_state_emp":"True","top_state_work":"True","top_nat_emp":"False","top_nat_work":"False"},"geometry":{"type":"Point","coordinates":[-73.45401109999999,41.394816999999996]}},{"type":"Feature","properties":{"loc2":"STOWE-VT","location":"STOWE, VT","type":"State Top Employer, State Top Employer","freq":2,"top_state_emp":"True","top_state_work":"False","top_nat_emp":"False","top_nat_work":"False"},"geometry":{"type":"Point","coordinates":[-72.6860186,44.465374100000005]}},{"type":"Feature","properties":{"loc2":"RAPID CITY-SD","location":"RAPID CITY, SD","type":"State Top Employer, State Top Employer, State Top Worksite","freq":3,"top_state_emp":"True","top_state_work":"True","top_nat_emp":"False","top_nat_work":"False"},"geometry":{"type":"Point","coordinates":[-103.22800600000001,44.081176]}},{"type":"Feature","properties":{"loc2":"KENNER-LA","location":"KENNER, LA","type":"State Top Employer, State Top Employer, State Top Employer, State Top Worksite","freq":4,"top_state_emp":"True","top_state_work":"True","top_nat_emp":"False","top_nat_work":"False"},"geometry":{"type":"Point","coordinates":[-88.5681062,38.64588079999999]}},{"type":"Feature","properties":{"loc2":"PRESQUE ISLE-ME","location":"PRESQUE ISLE, ME","type":"State Top Employer, State Top Worksite, State Top Worksite","freq":3,"top_state_emp":"True","top_state_work":"True","top_nat_emp":"False","top_nat_work":"False"},"geometry":{"type":"Point","coordinates":[-68.016357,46.681478999999996]}},{"type":"Feature","properties":{"loc2":"POCATELLO-ID","location":"POCATELLO, ID","type":"State Top Employer, State Top Employer, State Top Worksite","freq":3,"top_state_emp":"True","top_state_work":"True","top_nat_emp":"False","top_nat_work":"False"},"geometry":{"type":"Point","coordinates":[-112.4401098,42.86886129999999]}},{"type":"Feature","properties":{"loc2":"OPELIKA-AL","location":"OPELIKA, AL","type":"State Top Employer, State Top Employer","freq":2,"top_state_emp":"True","top_state_work":"False","top_nat_emp":"False","top_nat_work":"False"},"geometry":{"type":"Point","coordinates":[-85.39249304591841,32.72667]}},{"type":"Feature","properties":{"loc2":"MONROEVILLE-PA","location":"MONROEVILLE, PA","type":"National Top Employer, State Top Employer, State Top Employer","freq":3,"top_state_emp":"True","top_state_work":"False","top_nat_emp":"True","top_nat_work":"False"},"geometry":{"type":"Point","coordinates":[-79.78810250000001,40.4211798]}},{"type":"Feature","properties":{"loc2":"DRAPER-UT","location":"DRAPER, UT","type":"State Top Worksite, State Top Worksite","freq":2,"top_state_emp":"False","top_state_work":"True","top_nat_emp":"False","top_nat_work":"False"},"geometry":{"type":"Point","coordinates":[-111.8638226,40.5246711]}},{"type":"Feature","properties":{"loc2":"PINE BLUFF-AR","location":"PINE BLUFF, AR","type":"State Top Employer, State Top Worksite, State Top Worksite","freq":3,"top_state_emp":"True","top_state_work":"True","top_nat_emp":"False","top_nat_work":"False"},"geometry":{"type":"Point","coordinates":[-92.00319549999999,34.2284312]}},{"type":"Feature","properties":{"loc2":"SALEM-NH","location":"SALEM, NH","type":"State Top Employer, State Top Employer, State Top Employer, State Top Employer","freq":4,"top_state_emp":"True","top_state_work":"False","top_nat_emp":"False","top_nat_work":"False"},"geometry":{"type":"Point","coordinates":[-71.20089329999999,42.788422600000004]}},{"type":"Feature","properties":{"loc2":"NAUGATUCK-CT","location":"NAUGATUCK, CT","type":"State Top Employer, State Top Worksite, State Top Worksite","freq":3,"top_state_emp":"True","top_state_work":"True","top_nat_emp":"False","top_nat_work":"False"},"geometry":{"type":"Point","coordinates":[-73.0509432,41.4860186]}},{"type":"Feature","properties":{"loc2":"MYRTLE BEACH-SC","location":"MYRTLE BEACH, SC","type":"State Top Employer, State Top Worksite","freq":2,"top_state_emp":"True","top_state_work":"True","top_nat_emp":"False","top_nat_work":"False"},"geometry":{"type":"Point","coordinates":[-78.89004090000002,33.6956461]}},{"type":"Feature","properties":{"loc2":"COLUMBIA-MO","location":"COLUMBIA, MO","type":"State Top Employer, State Top Worksite, State Top Worksite","freq":3,"top_state_emp":"True","top_state_work":"True","top_nat_emp":"False","top_nat_work":"False"},"geometry":{"type":"Point","coordinates":[-92.3337366,38.951883]}},{"type":"Feature","properties":{"loc2":"WHITE RIVER JUNCTION-VT","location":"WHITE RIVER JUNCTION, VT","type":"State Top Employer, State Top Employer, State Top Worksite","freq":3,"top_state_emp":"True","top_state_work":"True","top_nat_emp":"False","top_nat_work":"False"},"geometry":{"type":"Point","coordinates":[-72.326431,43.64651]}},{"type":"Feature","properties":{"loc2":"LEHI-UT","location":"LEHI, UT","type":"State Top Worksite","freq":1,"top_state_emp":"False","top_state_work":"True","top_nat_emp":"False","top_nat_work":"False"},"geometry":{"type":"Point","coordinates":[-111.8491619,40.3880902]}},{"type":"Feature","properties":{"loc2":"MISSISSIPPI STATE-MS","location":"MISSISSIPPI STATE, MS","type":"State Top Worksite, State Top Worksite","freq":2,"top_state_emp":"False","top_state_work":"True","top_nat_emp":"False","top_nat_work":"False"},"geometry":{"type":"Point","coordinates":[-89.17039955,33.91501455]}},{"type":"Feature","properties":{"loc2":"BECKLEY-WV","location":"BECKLEY, WV","type":"State Top Employer","freq":1,"top_state_emp":"True","top_state_work":"False","top_nat_emp":"False","top_nat_work":"False"},"geometry":{"type":"Point","coordinates":[-81.18815570000001,37.778170200000005]}},{"type":"Feature","properties":{"loc2":"WESTBOROUGH-MA","location":"WESTBOROUGH, MA","type":"National Top Employer, State Top Employer, State Top Employer","freq":3,"top_state_emp":"True","top_state_work":"False","top_nat_emp":"True","top_nat_work":"False"},"geometry":{"type":"Point","coordinates":[-71.6129907,42.269430799999995]}},{"type":"Feature","properties":{"loc2":"MANCHESTER-CT","location":"MANCHESTER, CT","type":"State Top Employer, State Top Employer, State Top Employer","freq":3,"top_state_emp":"True","top_state_work":"False","top_nat_emp":"False","top_nat_work":"False"},"geometry":{"type":"Point","coordinates":[-72.5306356506776,41.78125595]}},{"type":"Feature","properties":{"loc2":"ALEXANDRIA-LA","location":"ALEXANDRIA, LA","type":"State Top Employer","freq":1,"top_state_emp":"True","top_state_work":"False","top_nat_emp":"False","top_nat_work":"False"},"geometry":{"type":"Point","coordinates":[-92.445137,31.311294]}},{"type":"Feature","properties":{"loc2":"LEXINGTON-KY","location":"LEXINGTON, KY","type":"State Top Employer, State Top Worksite","freq":2,"top_state_emp":"True","top_state_work":"True","top_nat_emp":"False","top_nat_work":"False"},"geometry":{"type":"Point","coordinates":[-84.4970393,38.0464066]}},{"type":"Feature","properties":{"loc2":"GREENVILLE-DE","location":"GREENVILLE, DE","type":"State Top Employer, State Top Employer, State Top Worksite","freq":3,"top_state_emp":"True","top_state_work":"True","top_nat_emp":"False","top_nat_work":"False"},"geometry":{"type":"Point","coordinates":[-75.6059843220723,39.7782105]}},{"type":"Feature","properties":{"loc2":"HOLLY SPRINGS-MS","location":"HOLLY SPRINGS, MS","type":"State Top Employer, State Top Worksite","freq":2,"top_state_emp":"True","top_state_work":"True","top_nat_emp":"False","top_nat_work":"False"},"geometry":{"type":"Point","coordinates":[-89.4486894,34.7675967]}},{"type":"Feature","properties":{"loc2":"URBANDALE-IA","location":"URBANDALE, IA","type":"State Top Employer, State Top Employer, State Top Employer","freq":3,"top_state_emp":"True","top_state_work":"False","top_nat_emp":"False","top_nat_work":"False"},"geometry":{"type":"Point","coordinates":[-93.7380624,41.6274552]}},{"type":"Feature","properties":{"loc2":"JAY-ME","location":"JAY, ME","type":"State Top Employer, State Top Worksite","freq":2,"top_state_emp":"True","top_state_work":"True","top_nat_emp":"False","top_nat_work":"False"},"geometry":{"type":"Point","coordinates":[-70.21637,44.504341]}},{"type":"Feature","properties":{"loc2":"CLEMSON-SC","location":"CLEMSON, SC","type":"State Top Employer, State Top Employer, State Top Employer, State Top Employer, State Top Employer","freq":5,"top_state_emp":"True","top_state_work":"False","top_nat_emp":"False","top_nat_work":"False"},"geometry":{"type":"Point","coordinates":[-82.83641109999999,34.685074900000004]}},{"type":"Feature","properties":{"loc2":"BUTTE-MT","location":"BUTTE, MT","type":"State Top Employer, State Top Employer, State Top Employer, State Top Employer, State Top Employer, State Top Worksite, State Top Worksite, State Top Worksite, State Top Worksite, State Top Worksite","freq":10,"top_state_emp":"True","top_state_work":"True","top_nat_emp":"False","top_nat_work":"False"},"geometry":{"type":"Point","coordinates":[-112.53650890000002,46.0131505]}},{"type":"Feature","properties":{"loc2":"SOUTHFIELD-MI","location":"SOUTHFIELD, MI","type":"State Top Worksite, State Top Worksite, State Top Worksite, State Top Worksite","freq":4,"top_state_emp":"False","top_state_work":"True","top_nat_emp":"False","top_nat_work":"False"},"geometry":{"type":"Point","coordinates":[-83.2218731,42.473368900000004]}},{"type":"Feature","properties":{"loc2":"NORWALK-CT","location":"NORWALK, CT","type":"State Top Employer, State Top Employer, State Top Employer","freq":3,"top_state_emp":"True","top_state_work":"False","top_nat_emp":"False","top_nat_work":"False"},"geometry":{"type":"Point","coordinates":[-73.4078968,41.1175966]}},{"type":"Feature","properties":{"loc2":"CARIBOU-ME","location":"CARIBOU, ME","type":"State Top Employer, State Top Employer","freq":2,"top_state_emp":"True","top_state_work":"False","top_nat_emp":"False","top_nat_work":"False"},"geometry":{"type":"Point","coordinates":[-68.0119677,46.860556700000004]}},{"type":"Feature","properties":{"loc2":"ST THOMAS-VI","location":"ST THOMAS, VI","type":"State Top Employer, State Top Employer, State Top Worksite","freq":3,"top_state_emp":"True","top_state_work":"True","top_nat_emp":"False","top_nat_work":"False"},"geometry":{"type":"Point","coordinates":[-64.91889970060271,18.34290815]}},{"type":"Feature","properties":{"loc2":"ORONO-ME","location":"ORONO, ME","type":"State Top Employer, State Top Employer, State Top Worksite, State Top Worksite","freq":4,"top_state_emp":"True","top_state_work":"True","top_nat_emp":"False","top_nat_work":"False"},"geometry":{"type":"Point","coordinates":[-68.672791,44.883607]}},{"type":"Feature","properties":{"loc2":"ANN ARBOR-MI","location":"ANN ARBOR, MI","type":"State Top Worksite, State Top Worksite, State Top Worksite, State Top Worksite","freq":4,"top_state_emp":"False","top_state_work":"True","top_nat_emp":"False","top_nat_work":"False"},"geometry":{"type":"Point","coordinates":[-83.7312291,42.268156899999994]}},{"type":"Feature","properties":{"loc2":"LOS ALAMOS-NM","location":"LOS ALAMOS, NM","type":"State Top Employer, State Top Employer, State Top Employer, State Top Worksite","freq":4,"top_state_emp":"True","top_state_work":"True","top_nat_emp":"False","top_nat_work":"False"},"geometry":{"type":"Point","coordinates":[-106.29899579999999,35.881400899999996]}},{"type":"Feature","properties":{"loc2":"MANCHESTER-NH","location":"MANCHESTER, NH","type":"State Top Employer, State Top Employer, State Top Employer, State Top Employer, State Top Worksite, State Top Worksite","freq":6,"top_state_emp":"True","top_state_work":"True","top_nat_emp":"False","top_nat_work":"False"},"geometry":{"type":"Point","coordinates":[-71.4547891,42.995639700000005]}},{"type":"Feature","properties":{"loc2":"BROOKFIELD-WI","location":"BROOKFIELD, WI","type":"State Top Employer, State Top Employer, State Top Employer","freq":3,"top_state_emp":"True","top_state_work":"False","top_nat_emp":"False","top_nat_work":"False"},"geometry":{"type":"Point","coordinates":[-88.1064787,43.0605671]}},{"type":"Feature","properties":{"loc2":"AURORA-CO","location":"AURORA, CO","type":"State Top Employer, State Top Employer, State Top Employer, State Top Worksite","freq":4,"top_state_emp":"True","top_state_work":"True","top_nat_emp":"False","top_nat_work":"False"},"geometry":{"type":"Point","coordinates":[-104.8319196,39.729432]}},{"type":"Feature","properties":{"loc2":"GLASTONBURY-CT","location":"GLASTONBURY, CT","type":"State Top Employer, State Top Employer, State Top Employer, State Top Worksite","freq":4,"top_state_emp":"True","top_state_work":"True","top_nat_emp":"False","top_nat_work":"False"},"geometry":{"type":"Point","coordinates":[-72.60814599999999,41.7123218]}},{"type":"Feature","properties":{"loc2":"MONTPELIER-VT","location":"MONTPELIER, VT","type":"State Top Worksite, State Top Worksite, State Top Worksite, State Top Worksite, State Top Worksite","freq":5,"top_state_emp":"False","top_state_work":"True","top_nat_emp":"False","top_nat_work":"False"},"geometry":{"type":"Point","coordinates":[-72.575684,44.260445000000004]}},{"type":"Feature","properties":{"loc2":"LAWRENCE-KS","location":"LAWRENCE, KS","type":"State Top Employer, State Top Employer, State Top Worksite","freq":3,"top_state_emp":"True","top_state_work":"True","top_nat_emp":"False","top_nat_work":"False"},"geometry":{"type":"Point","coordinates":[-95.2359496,38.9719384]}},{"type":"Feature","properties":{"loc2":"MIDDLEBURY-VT","location":"MIDDLEBURY, VT","type":"State Top Employer, State Top Employer, State Top Worksite","freq":3,"top_state_emp":"True","top_state_work":"True","top_nat_emp":"False","top_nat_work":"False"},"geometry":{"type":"Point","coordinates":[-73.1633010541542,44.007273600000005]}},{"type":"Feature","properties":{"loc2":"KNOXVILLE-TN","location":"KNOXVILLE, TN","type":"State Top Employer, State Top Employer, State Top Employer, State Top Worksite","freq":4,"top_state_emp":"True","top_state_work":"True","top_nat_emp":"False","top_nat_work":"False"},"geometry":{"type":"Point","coordinates":[-83.92102609999999,35.960394799999996]}},{"type":"Feature","properties":{"loc2":"BIDDEFORD-ME","location":"BIDDEFORD, ME","type":"State Top Employer, State Top Employer, State Top Employer, State Top Employer, State Top Worksite","freq":5,"top_state_emp":"True","top_state_work":"True","top_nat_emp":"False","top_nat_work":"False"},"geometry":{"type":"Point","coordinates":[-70.4533844,43.4925843]}},{"type":"Feature","properties":{"loc2":"HANOVER-NH","location":"HANOVER, NH","type":"State Top Employer, State Top Employer, State Top Employer, State Top Worksite","freq":4,"top_state_emp":"True","top_state_work":"True","top_nat_emp":"False","top_nat_work":"False"},"geometry":{"type":"Point","coordinates":[-72.288666,43.703621999999996]}},{"type":"Feature","properties":{"loc2":"ABERDEEN-SD","location":"ABERDEEN, SD","type":"State Top Employer, State Top Worksite, State Top Worksite","freq":3,"top_state_emp":"True","top_state_work":"True","top_nat_emp":"False","top_nat_work":"False"},"geometry":{"type":"Point","coordinates":[-98.487813,45.464980499999996]}},{"type":"Feature","properties":{"loc2":"RTP-NC","location":"RTP, NC","type":"National Top Employer, National Top Employer, National Top Employer, National Top Employer","freq":4,"top_state_emp":"False","top_state_work":"False","top_nat_emp":"True","top_nat_work":"False"},"geometry":{"type":"Point","coordinates":[-78.877021,35.856549]}},{"type":"Feature","properties":{"loc2":"MAYAGUEZ-PR","location":"MAYAGUEZ, PR","type":"State Top Employer, State Top Employer, State Top Worksite","freq":3,"top_state_emp":"True","top_state_work":"True","top_nat_emp":"False","top_nat_work":"False"},"geometry":{"type":"Point","coordinates":[-67.1518489866115,18.17413625]}},{"type":"Feature","properties":{"loc2":"RESTON-VA","location":"RESTON, VA","type":"National Top Worksite, State Top Employer, State Top Worksite, State Top Worksite","freq":4,"top_state_emp":"True","top_state_work":"True","top_nat_emp":"False","top_nat_work":"True"},"geometry":{"type":"Point","coordinates":[-77.3579743,38.9584018]}},{"type":"Feature","properties":{"loc2":"SOMERSET-NJ","location":"SOMERSET, NJ","type":"National Top Employer, National Top Employer, National Top Worksite, National Top Worksite, State Top Worksite","freq":5,"top_state_emp":"False","top_state_work":"True","top_nat_emp":"True","top_nat_work":"True"},"geometry":{"type":"Point","coordinates":[-74.61895559999999,40.567508399999994]}},{"type":"Feature","properties":{"loc2":"MONROE-LA","location":"MONROE, LA","type":"State Top Worksite, State Top Worksite, State Top Worksite, State Top Worksite, State Top Worksite","freq":5,"top_state_emp":"False","top_state_work":"True","top_nat_emp":"False","top_nat_work":"False"},"geometry":{"type":"Point","coordinates":[-90.1792484,38.272231299999994]}},{"type":"Feature","properties":{"loc2":"LIVONIA-MI","location":"LIVONIA, MI","type":"State Top Employer, State Top Worksite, State Top Worksite, State Top Worksite, State Top Worksite","freq":5,"top_state_emp":"True","top_state_work":"True","top_nat_emp":"False","top_nat_work":"False"},"geometry":{"type":"Point","coordinates":[-83.3527097,42.36837]}},{"type":"Feature","properties":{"loc2":"SOUTH JORDAN-UT","location":"SOUTH JORDAN, UT","type":"State Top Employer, State Top Employer, State Top Employer, State Top Employer, State Top Employer","freq":5,"top_state_emp":"True","top_state_work":"False","top_nat_emp":"False","top_nat_work":"False"},"geometry":{"type":"Point","coordinates":[-111.929658,40.5621704]}},{"type":"Feature","properties":{"loc2":"SOUTH PORTLAND-ME","location":"SOUTH PORTLAND, ME","type":"State Top Employer, State Top Employer, State Top Worksite","freq":3,"top_state_emp":"True","top_state_work":"True","top_nat_emp":"False","top_nat_work":"False"},"geometry":{"type":"Point","coordinates":[-70.2408811,43.6414716]}},{"type":"Feature","properties":{"loc2":"EAST HARTFORD-CT","location":"EAST HARTFORD, CT","type":"State Top Employer, State Top Employer, State Top Employer, State Top Employer, State Top Employer","freq":5,"top_state_emp":"True","top_state_work":"False","top_nat_emp":"False","top_nat_work":"False"},"geometry":{"type":"Point","coordinates":[-72.6204092070236,41.7623342]}},{"type":"Feature","properties":{"loc2":"WICHITA-KS","location":"WICHITA, KS","type":"State Top Employer, State Top Worksite, State Top Worksite, State Top Worksite","freq":4,"top_state_emp":"True","top_state_work":"True","top_nat_emp":"False","top_nat_work":"False"},"geometry":{"type":"Point","coordinates":[-97.3375448,37.6922361]}},{"type":"Feature","properties":{"loc2":"ASHBURN-VA","location":"ASHBURN, VA","type":"National Top Employer, National Top Employer, State Top Employer, State Top Employer, State Top Employer, State Top Worksite","freq":6,"top_state_emp":"True","top_state_work":"True","top_nat_emp":"True","top_nat_work":"False"},"geometry":{"type":"Point","coordinates":[-77.48748990000001,39.043719200000005]}},{"type":"Feature","properties":{"loc2":"BANGOR-ME","location":"BANGOR, ME","type":"State Top Employer, State Top Employer, State Top Employer, State Top Worksite","freq":4,"top_state_emp":"True","top_state_work":"True","top_nat_emp":"False","top_nat_work":"False"},"geometry":{"type":"Point","coordinates":[-68.771226,44.801613]}},{"type":"Feature","properties":{"loc2":"RALEIGH-NC","location":"RALEIGH, NC","type":"National Top Employer, National Top Worksite, State Top Worksite, State Top Worksite, State Top Worksite","freq":5,"top_state_emp":"False","top_state_work":"True","top_nat_emp":"True","top_nat_work":"True"},"geometry":{"type":"Point","coordinates":[-78.63909890000001,35.7803977]}},{"type":"Feature","properties":{"loc2":"BOULDER-CO","location":"BOULDER, CO","type":"State Top Employer, State Top Employer, State Top Worksite, State Top Worksite, State Top Worksite","freq":5,"top_state_emp":"True","top_state_work":"True","top_nat_emp":"False","top_nat_work":"False"},"geometry":{"type":"Point","coordinates":[-105.2705456,40.0149856]}},{"type":"Feature","properties":{"loc2":"JACKSONVILLE-FL","location":"JACKSONVILLE, FL","type":"National Top Employer, National Top Worksite, State Top Employer, State Top Employer, State Top Worksite","freq":5,"top_state_emp":"True","top_state_work":"True","top_nat_emp":"True","top_nat_work":"True"},"geometry":{"type":"Point","coordinates":[-81.655651,30.3321838]}},{"type":"Feature","properties":{"loc2":"DEARBORN-MI","location":"DEARBORN, MI","type":"State Top Worksite, State Top Worksite, State Top Worksite, State Top Worksite, State Top Worksite","freq":5,"top_state_emp":"False","top_state_work":"True","top_nat_emp":"False","top_nat_work":"False"},"geometry":{"type":"Point","coordinates":[-83.1763145,42.3222599]}},{"type":"Feature","properties":{"loc2":"WOODBRIDGE-NJ","location":"WOODBRIDGE, NJ","type":"National Top Employer, National Top Employer, National Top Worksite, State Top Worksite, State Top Worksite","freq":5,"top_state_emp":"False","top_state_work":"True","top_nat_emp":"True","top_nat_work":"True"},"geometry":{"type":"Point","coordinates":[-74.2860007694445,40.55418]}},{"type":"Feature","properties":{"loc2":"CLEVELAND-OH","location":"CLEVELAND, OH","type":"State Top Employer, State Top Worksite, State Top Worksite, State Top Worksite","freq":4,"top_state_emp":"True","top_state_work":"True","top_nat_emp":"False","top_nat_work":"False"},"geometry":{"type":"Point","coordinates":[-81.6934446,41.5051613]}},{"type":"Feature","properties":{"loc2":"CHESTERFIELD-MO","location":"CHESTERFIELD, MO","type":"State Top Employer, State Top Employer, State Top Employer, State Top Worksite","freq":4,"top_state_emp":"True","top_state_work":"True","top_nat_emp":"False","top_nat_work":"False"},"geometry":{"type":"Point","coordinates":[-90.5742029,38.6560565]}},{"type":"Feature","properties":{"loc2":"PORTSMOUTH-NH","location":"PORTSMOUTH, NH","type":"State Top Employer, State Top Worksite, State Top Worksite, State Top Worksite","freq":4,"top_state_emp":"True","top_state_work":"True","top_nat_emp":"False","top_nat_work":"False"},"geometry":{"type":"Point","coordinates":[-70.7625532,43.071755200000005]}},{"type":"Feature","properties":{"loc2":"SHREVEPORT-LA","location":"SHREVEPORT, LA","type":"State Top Employer, State Top Employer, State Top Employer, State Top Employer, State Top Worksite, State Top Worksite","freq":6,"top_state_emp":"True","top_state_work":"True","top_nat_emp":"False","top_nat_work":"False"},"geometry":{"type":"Point","coordinates":[-93.7651944,32.522182799999996]}},{"type":"Feature","properties":{"loc2":"HAMILTON-MT","location":"HAMILTON, MT","type":"State Top Employer, State Top Employer, State Top Worksite, State Top Worksite, State Top Worksite, State Top Worksite, State Top Worksite, State Top Worksite","freq":8,"top_state_emp":"True","top_state_work":"True","top_nat_emp":"False","top_nat_work":"False"},"geometry":{"type":"Point","coordinates":[-114.15433200000001,46.248886]}},{"type":"Feature","properties":{"loc2":"RICHARDSON-TX","location":"RICHARDSON, TX","type":"National Top Employer, National Top Employer, National Top Employer, National Top Worksite, National Top Worksite","freq":5,"top_state_emp":"False","top_state_work":"False","top_nat_emp":"True","top_nat_work":"True"},"geometry":{"type":"Point","coordinates":[-96.7297206,32.9481789]}},{"type":"Feature","properties":{"loc2":"LEBANON-NH","location":"LEBANON, NH","type":"State Top Employer, State Top Worksite, State Top Worksite","freq":3,"top_state_emp":"True","top_state_work":"True","top_nat_emp":"False","top_nat_work":"False"},"geometry":{"type":"Point","coordinates":[-72.251587,43.643032]}},{"type":"Feature","properties":{"loc2":"MILPITAS-CA","location":"MILPITAS, CA","type":"National Top Employer, National Top Employer, National Top Employer, National Top Worksite, National Top Worksite","freq":5,"top_state_emp":"False","top_state_work":"False","top_nat_emp":"True","top_nat_work":"True"},"geometry":{"type":"Point","coordinates":[-121.90662379999999,37.4282724]}},{"type":"Feature","properties":{"loc2":"DORAL-FL","location":"DORAL, FL","type":"National Top Employer, National Top Worksite, National Top Worksite, State Top Employer, State Top Worksite, State Top Worksite","freq":6,"top_state_emp":"True","top_state_work":"True","top_nat_emp":"True","top_nat_work":"True"},"geometry":{"type":"Point","coordinates":[-80.3539679130979,25.818472500000002]}},{"type":"Feature","properties":{"loc2":"LINCOLN-NE","location":"LINCOLN, NE","type":"State Top Employer, State Top Employer, State Top Employer, State Top Worksite, State Top Worksite, State Top Worksite","freq":6,"top_state_emp":"True","top_state_work":"True","top_nat_emp":"False","top_nat_work":"False"},"geometry":{"type":"Point","coordinates":[-96.66782099999999,40.8]}},{"type":"Feature","properties":{"loc2":"LAS CRUCES-NM","location":"LAS CRUCES, NM","type":"State Top Employer, State Top Employer, State Top Employer, State Top Worksite","freq":4,"top_state_emp":"True","top_state_work":"True","top_nat_emp":"False","top_nat_work":"False"},"geometry":{"type":"Point","coordinates":[-106.7798078,32.3140354]}},{"type":"Feature","properties":{"loc2":"DOVER-NH","location":"DOVER, NH","type":"State Top Worksite, State Top Worksite, State Top Worksite, State Top Worksite, State Top Worksite, State Top Worksite, State Top Worksite","freq":7,"top_state_emp":"False","top_state_work":"True","top_nat_emp":"False","top_nat_work":"False"},"geometry":{"type":"Point","coordinates":[-70.87391579999999,43.198057]}},{"type":"Feature","properties":{"loc2":"RIDGELAND-MS","location":"RIDGELAND, MS","type":"State Top Worksite, State Top Worksite, State Top Worksite","freq":3,"top_state_emp":"False","top_state_work":"True","top_nat_emp":"False","top_nat_work":"False"},"geometry":{"type":"Point","coordinates":[-90.13230870000001,32.4284761]}},{"type":"Feature","properties":{"loc2":"PONCE-PR","location":"PONCE, PR","type":"State Top Employer, State Top Employer, State Top Worksite, State Top Worksite, State Top Worksite","freq":5,"top_state_emp":"True","top_state_work":"True","top_nat_emp":"False","top_nat_work":"False"},"geometry":{"type":"Point","coordinates":[-66.5382551,18.007633]}},{"type":"Feature","properties":{"loc2":"SCOTTSDALE-AZ","location":"SCOTTSDALE, AZ","type":"State Top Employer, State Top Employer, State Top Employer, State Top Employer","freq":4,"top_state_emp":"True","top_state_work":"False","top_nat_emp":"False","top_nat_work":"False"},"geometry":{"type":"Point","coordinates":[-111.8992365,33.5091215]}},{"type":"Feature","properties":{"loc2":"AUGUSTA-ME","location":"AUGUSTA, ME","type":"State Top Worksite, State Top Worksite, State Top Worksite, State Top Worksite, State Top Worksite","freq":5,"top_state_emp":"False","top_state_work":"True","top_nat_emp":"False","top_nat_work":"False"},"geometry":{"type":"Point","coordinates":[-69.779663,44.310583]}},{"type":"Feature","properties":{"loc2":"BLOOMINGTON-MN","location":"BLOOMINGTON, MN","type":"State Top Employer, State Top Employer, State Top Employer, State Top Employer, State Top Employer, State Top Employer, State Top Worksite","freq":7,"top_state_emp":"True","top_state_work":"True","top_nat_emp":"False","top_nat_work":"False"},"geometry":{"type":"Point","coordinates":[-93.3204872,44.832240500000005]}},{"type":"Feature","properties":{"loc2":"MIDDLETOWN-NJ","location":"MIDDLETOWN, NJ","type":"National Top Worksite, National Top Worksite, National Top Worksite, State Top Worksite, State Top Worksite, State Top Worksite","freq":6,"top_state_emp":"False","top_state_work":"True","top_nat_emp":"False","top_nat_work":"True"},"geometry":{"type":"Point","coordinates":[-74.51349,40.9159321]}},{"type":"Feature","properties":{"loc2":"PIERRE-SD","location":"PIERRE, SD","type":"State Top Employer, State Top Employer, State Top Employer, State Top Employer, State Top Employer, State Top Employer, State Top Worksite","freq":7,"top_state_emp":"True","top_state_work":"True","top_nat_emp":"False","top_nat_work":"False"},"geometry":{"type":"Point","coordinates":[-100.351185,44.368305]}},{"type":"Feature","properties":{"loc2":"MISS. STATE-MS","location":"MISS. STATE, MS","type":"State Top Employer, State Top Employer, State Top Employer, State Top Employer, State Top Employer, State Top Employer, State Top Employer","freq":7,"top_state_emp":"True","top_state_work":"False","top_nat_emp":"False","top_nat_work":"False"},"geometry":{"type":"Point","coordinates":[-89.17039955,33.91501455]}},{"type":"Feature","properties":{"loc2":"GRAND FORKS-ND","location":"GRAND FORKS, ND","type":"State Top Employer, State Top Employer, State Top Employer, State Top Employer, State Top Worksite, State Top Worksite, State Top Worksite, State Top Worksite","freq":8,"top_state_emp":"True","top_state_work":"True","top_nat_emp":"False","top_nat_work":"False"},"geometry":{"type":"Point","coordinates":[-97.0592028,47.9078244]}},{"type":"Feature","properties":{"loc2":"EDINA-MN","location":"EDINA, MN","type":"State Top Employer, State Top Employer, State Top Employer, State Top Worksite, State Top Worksite, State Top Worksite","freq":6,"top_state_emp":"True","top_state_work":"True","top_nat_emp":"False","top_nat_work":"False"},"geometry":{"type":"Point","coordinates":[-93.3501222,44.8897027]}},